id,ctry,cit,reg,name,url,stat,date,prfs,lat,lon,prts,traf,avg,trgh,ipv6_avg,pch,updt,tc_rank,tw_rank,pc_rank,pr_rank,pw_rank,tr_rank,prts_url,q9,iata,regct
30,Brazil,"São Paulo","Latin America","Ponto de Troca de Tráfego Metro São Paulo",http://ix.br/adesao/sp,Active,20041004,0,-23.62000,-46.65000,2347,13191650000,4777000000,1500000000,7.473310,Yes,2021-04-03,1,1,1,1,1,1,https://ix.br/particip/sp,No,GRU,137
160,Netherlands,Amsterdam,Europe,"Amsterdam Internet Exchange",https://ams-ix.net/,Active,19971229,1204334,52.30000,4.77000,851,9836100000,5597700000,3077200000,2.459940,Yes,2021-04-03,1,2,1,2,4,1,https://ams-ix.net/connected_parties,Yes,AMS,383
83,Germany,Frankfurt,Europe,"Deutscher Commercial Internet Exchange DE-CIX Frankfurt",https://www.de-cix.net/en/locations/germany/frankfurt,Active,19950500,1492263,50.12000,8.68000,1068,9322000200,6910000000,3600000000,0.000000,Yes,2021-06-10,1,3,1,1,3,2,https://www.de-cix.net/en/locations/germany/frankfurt/connected-networks,Yes,FRA,383
62,"United Kingdom",London,Europe,"London Internet Exchange",https://www.linx.net/,Active,19941108,757539,51.48000,-0.45000,770,4216000000,2700000000,1400000000,0.000000,Yes,2018-08-22,1,5,1,3,5,3,https://portal.linx.net/members/list-ip-asn,Yes,LHR,383
572,Netherlands,Amsterdam,Europe,"Neutral Internet Exchange",https://www.nl-ix.net/,Active,20020301,345945,52.30000,4.77000,439,3790000000,1890000000,800000000,0.000000,Yes,2021-04-03,2,6,2,9,15,4,https://www.nl-ix.net/network/connected-networks/,Yes,AMS,383
415,Brazil,"Rio de Janeiro","Latin America","Ponto de Troca de Tráfego do Rio de Janeiro",https://ix.br/adesao/rj,Active,20100000,0,-22.90000,-43.17000,464,2048960000,945600000,320000000,10.321490,No,2021-04-03,2,10,2,2,8,3,https://ix.br/particip/rj,No,,137
1240,Ukraine,Kiev,Europe,"Digital Telecom Internet Exchange",https://dtel-ix.net/,Active,20090000,0,50.40000,30.45000,140,1944000000,808800000,150040000,1.211670,No,2021-04-03,2,11,2,35,64,8,https://dtel-ix.net/en/members,No,,383
345,"United States",Seattle,"North America","Seattle Internet Exchange",https://www.seattleix.net/,Active,19970620,478310,47.61000,-122.33000,271,1862436322,1080000000,700000000,0.000000,Yes,2021-04-03,1,12,2,2,25,1,https://www.seattleix.net/participants/,Yes,SEA,253
96,China,"Hong Kong",Asia-Pacific,"Hong Kong Internet Exchange",http://www.hkix.net,Active,19950400,648896,22.33000,114.18000,293,1767960000,852000000,400000000,0.000000,Yes,2021-04-03,1,13,1,4,22,1,http://www.hkix.net/hkix/participant.htm,No,HKG,249
1306,"South Africa",Johannesburg,Africa,"NAPAfrica Johannesburg",https://www.napafrica.net/,Active,20120000,260323,-26.13000,28.23000,470,1602984701,1055451947,449458158,0.000000,Yes,2021-07-11,1,14,1,1,7,1,https://www.napafrica.net/who-is-peering/,Yes,JNB,81
1270,Russia,Moscow,Europe,"DataIX Moscow",http://www.dataix.ru/,Active,20101020,0,55.75000,37.60000,282,1600000000,0,200000000,0.000000,No,2021-04-03,1,15,4,14,23,9,http://www.dataix.ru/members/,No,,383
129,Japan,Tokyo,Asia-Pacific,"Japan Internet Exchange",https://www.jpix.ad.jp/jp/index.php,Active,19970700,341786,35.55000,139.78000,174,1550000000,842500000,400000000,0.000000,Yes,2021-04-03,1,16,1,10,52,2,https://www.jpix.ad.jp/en/member.php?qso=b&qar=2,Yes,NRT,249
130,Japan,Tokyo,Asia-Pacific,"JPNAP Tokyo I - Otemachi",http://www.jpnap.net/english/jpnap-tokyo/index.html,Active,20010000,0,35.55000,139.78000,130,1322568000,780000000,338000000,0.000000,No,2019-03-25,2,18,3,15,69,3,http://www.jpnap.net/english/jpnap-tokyo/customer.html,No,,249
227,Sweden,Stockholm,Europe,"Netnod Stockholm",https://www.netnod.se/,Active,19970000,0,59.33000,18.05000,162,1299711000,917833000,200000000,0.000000,Yes,2021-04-03,1,19,1,32,57,11,https://www.netnod.se/ix/networks,No,ARN,383
464,Singapore,Singapore,Asia-Pacific,"Equinix Singapore IBX",https://www.equinix.sg/,Active,20040426,767349,1.37000,103.98000,156,650000000,0,0,0.000000,Yes,0000-00-00,1,20,1,12,59,4,,Yes,"QPG, QPG",249
118,Italy,Milan,Europe,"Milan Internet Exchange",http://www.mix-it.net/,Active,20001100,0,45.45000,9.17000,345,1291474000,668140000,190100000,0.020950,No,2021-04-01,1,21,1,11,17,12,http://www.mix-it.net/index.php?option=com_content&view=article&id=85&Itemid=84&lang=en,No,,383
1124,France,Paris,Europe,France-IX,https://www.franceix.net/en/,Active,20101100,433040,48.80000,2.33000,447,1270000000,665000000,556000000,0.000000,Yes,2021-04-05,1,22,1,6,11,13,https://www.franceix.net/en/france-ix-paris/members-in-paris/,Yes,CDG,383
1089,Brazil,Fortaleza,"Latin America","Ponto de Troca de Trafego do Fortaleza",https://ix.br/adesao/ce,Active,20081001,0,-3.78000,-38.53000,445,1210000000,388000000,120000000,0.000000,No,2021-04-05,3,24,3,3,14,4,https://ix.br/particip/ce,No,,137
55,"Czech Republic",Prague,Europe,"NIX.CZ - Neutral Internet eXchange for the Czech Republic",https://www.nix.cz/cs,Active,19960831,0,50.08000,14.43000,181,1200000000,0,160000000,0.000000,No,2020-03-27,1,25,1,27,47,14,https://www.nix.cz/en/networks,No,,383
39,Canada,Toronto,"North America","Toronto Internet Exchange",https://www.torix.ca/,Active,19980724,341350,43.67000,-79.40000,226,1172000000,706000000,316000000,0.000000,Yes,2021-04-03,1,26,1,4,35,3,https://www.torix.ca/peers/,Yes,YYZ,253
213,Spain,Madrid,Europe,"Punto Neutro Español de Internet",http://www.espanix.net/en/index.html,Active,19970000,148611,40.43000,-3.70000,97,1160000000,560340000,180000000,0.000000,Yes,2021-04-03,1,27,2,51,98,15,http://www.espanix.net/en/partners.html,Yes,MAD,383
126,Japan,Osaka,Asia-Pacific,"JPNAP Osaka",http://www.mfeed.co.jp/english/jpnap-osaka/index.html,Active,20020002,0,34.53000,135.50000,52,976250000,407000000,179000000,0.000000,No,2021-03-29,3,30,5,36,170,6,http://www.mfeed.co.jp/english/jpnap-osaka/customer.html,No,,249
255,"United States",Ashburn,"North America","Equinix IBX Ashburn",https://www.equinix.com/,Active,20021031,940424,39.02000,-77.46000,208,610000000,0,0,0.000000,Yes,0000-00-00,5,35,5,6,44,6,,Yes,IAD,253
320,"United States","New York","North America","New York International Internet Exchange",http://www.nyiix.net/,Active,19960000,157,40.75000,-74.00000,174,907550000,605230000,390000000,0.000000,Yes,2021-04-03,6,36,6,7,52,7,http://www.nyiix.net/members/,Yes,LGA,253
509,Poland,Warsaw,Europe,"Equinix IX Warsaw (ex-PLIX)",http://www.plix.pl/pl,Active,20060402,304605,52.23000,21.00000,266,883000000,521000000,150000000,0.000000,Yes,2018-11-02,4,38,3,15,26,19,http://www.plix.pl/pl/member,Yes,WAW,383
1265,"United States",Minneapolis,"North America","Midwest Internet Cooperative Exchange",http://www.micemn.net/,Active,20110111,0,44.98550,-93.27190,94,590890000,1,110000000,0.000000,No,2021-04-03,7,39,15,16,102,8,http://www.micemn.net/participants.html,No,MSP,253
15,Austria,Vienna,Europe,"Vienna Internet Exchange",https://www.vix.at/vixhome.html,Active,19960400,145453,48.20000,16.37000,149,796730000,478680000,142500000,3.693490,Yes,2021-04-03,1,40,1,33,60,20,https://www.vix.at/vix_participants.html,Yes,VIE,383
49,Colombia,Bogotá,"Latin America","NAP Colombia",https://www.nap.co,Active,20000629,0,4.70000,-74.13000,21,743000000,0,10000000,0.000000,No,2020-09-21,1,41,1,36,306,5,https://www.nap.co/miembros/,No,,137
125,Japan,Osaka,Asia-Pacific,"JPIX Osaka",https://www.jpix.ad.jp/en/,Active,20020400,0,34.53000,135.50000,49,726900000,467000000,150000000,0.000000,No,2021-04-03,4,43,7,40,185,8,https://www.jpix.ad.jp/jp/member.php,No,,249
249,Ukraine,Kiev,Europe,"Ukrainian Internet Exchange",https://www.ix.net.ua/en,Active,20000700,43962,50.40000,30.45000,180,707380000,169,110000000,0.000000,No,2021-04-03,3,44,1,28,48,22,https://www.ix.net.ua/members,No,,383
1272,Singapore,Singapore,Asia-Pacific,"Singapore Internet Exchange",https://www.sgix.sg/,Active,20100607,295147,1.37000,103.98000,133,702830000,287630000,120000000,0.000000,Yes,2021-04-03,2,45,2,14,68,9,https://www.sgix.sg/peering-members/,Yes,QPG,249
78,France,Paris,Europe,"Service for French Internet Exchange",https://www.sfinx.fr/,Active,19950000,10102,48.80000,2.33000,75,593600000,8000000,1500,0.000000,No,2021-04-03,2,49,6,63,127,24,https://www.sfinx.fr/,Yes,CDG,383
116,Ireland,Dublin,Europe,"Internet Neutral Exchange Association Limited",https://www.inex.ie/,Active,19960000,1011441,53.33000,-6.25000,107,451116604,319644659,169188976,0.000000,Yes,2021-07-11,1,50,1,45,88,25,https://www.inex.ie/about-us/inex-members/,Yes,DUB,383
64,"United Kingdom",London,Europe,"London Network Access Point",https://www.lonap.net/,Active,19980000,89149,51.48000,-0.45000,235,560000000,390323594,160208112,0.000000,Yes,2021-04-03,2,51,2,19,32,26,https://www.lonap.net/members.shtml,Yes,LHR,383
17,Belgium,Brussels,Europe,"Belgian National Internet Exchange",https://bnix.net/,Active,19950000,0,50.90000,4.53000,61,280000000,0,80000000,0.000000,No,2021-04-03,1,51,1,71,153,26,https://bnix.net/en/content/participants,No,,383
1088,Brazil,Londrina,"Latin America","Ponto de Troca de Trafego do Londrina",https://ix.br/adesao/lda,Active,20090215,0,-23.33000,-51.13000,34,530000000,21,5000000,0.000000,No,2021-11-03,4,53,21,26,241,6,https://ix.br/particip/lda,No,,137
616,Nigeria,Lagos,Africa,"Internet Exchange Point of Nigeria - Lagos",http://ixp.net.ng/,Active,20060000,9298,6.55000,3.35000,61,485522224,298081189,207319843,43.591020,Yes,2021-07-11,1,54,1,7,153,2,http://ixp.net.ng/member-list/,Yes,LOS,81
80,Germany,Berlin,Europe,"Berlin Commercial Internet Exchange",https://www.bcix.de/bcix/,Active,20020906,303761,52.38000,13.52000,115,438112253,275878801,102287012,0.000000,Yes,2021-07-11,2,55,8,44,83,28,https://www.bcix.de/bcix/members/,Yes,BER,383
147,"South Korea",Seoul,Asia-Pacific,"Korea Internet Neutral Exchange KINX",https://www.kinx.net/?lang=en,Active,20000600,191654,37.50000,126.93000,64,412000000,0,0,0.000000,Yes,2016-03-08,1,56,2,32,145,12,https://www.kinx.net/service/network/ix/localpeering/?lang=en,Yes,ICN,249
1137,Bulgaria,Sofia,Europe,"Bulgarian Internet eXchange",https://www.bix.bg/en/home.html,Active,20090801,255099,42.65000,23.38000,77,388390000,179500000,90000000,0.000000,Yes,2021-04-05,2,57,2,61,125,29,https://www.bix.bg/en/members/public_peers.html,Yes,SOF,383
1092,Brazil,"Porto Alegre","Latin America","Ponto de Troca de Trafego do Porto Alegre",https://ix.br/adesao/rs,Active,20020400,0,-30.00000,-51.18000,272,358380000,138000000,50000000,0.000000,No,2021-04-05,5,59,4,4,24,8,https://ix.br/particip/rs,No,,137
238,Taiwan,Taipei,Asia-Pacific,"Taiwan Internet Exchange",https://www.twix.net/index_e.html,Active,19971200,35830,25.03000,121.52000,26,328290000,110720000,50000000,0.000000,No,2021-04-03,1,60,2,62,276,13,https://www.twix.net/member_e.html,No,,249
1199,Brazil,Campinas,"Latin America","Ponto de Troca de Trafego do Campinas",https://ix.br/adesao/cas,Active,20091130,0,-22.90000,-47.08000,67,310352650,145259614,25007476,0.000000,No,2021-07-11,6,62,13,16,143,9,https://ix.br/particip/cas,No,,137
99,Hungary,Budapest,Europe,"Budapest Internet Exchange",http://www.bix.hu/,Active,19960000,0,47.43000,19.18000,79,298400000,122000000,46900000,0.000000,No,2021-04-03,1,64,1,59,121,30,http://www.bix.hu/en/members,No,,383
234,Switzerland,Zurich,Europe,SwissIX,https://www.swissix.ch/,Active,20010309,98444,47.48000,8.53000,228,293600737,185216454,88866795,0.000000,Yes,2021-07-11,1,66,2,20,34,31,https://www.swissix.ch/participation/participants,Yes,ZRH,383
204,Slovakia,Bratislava,Europe,"Slovak Internet eXchange Bratislava",http://www.six.sk/,Active,19961000,0,48.20000,17.20000,57,293431815,133428106,32287362,0.000000,No,2021-07-11,1,67,1,74,161,32,http://www.six.sk/index.php?lang=en&page=pripojene_siete,No,,383
81,Germany,Berlin,Europe,"Megaport Berlin IX",https://www.megaport.com/,Active,20030000,225699,52.38000,13.52000,56,286000000,0,0,0.000000,Yes,0000-00-00,3,68,12,76,163,33,https://www.ecix.net/connected-networks,Yes,FRA,383
1308,"South Africa","Cape Town",Africa,"NAPAfrica Cape Town",https://www.napafrica.net/,Active,20120000,252104,-33.98000,18.60000,226,285045321,191861788,82630755,0.000000,Yes,2021-07-11,2,69,2,2,35,3,https://www.napafrica.net/who-is-peering/,Yes,SDB,81
307,"United States",Miami,"North America","NAP of the Americas",https://enterprise.verizon.com/,Active,20040812,619952,25.83000,-80.29000,87,250000000,0,0,0.000000,Yes,0000-00-00,9,71,17,18,113,11,,No,,253
803,Netherlands,Rotterdam,Europe,"Rotterdam Internet eXchange",https://r-ix.nl/,Active,20070000,15279,51.95000,4.45000,29,250000000,0,40000000,0.000000,Yes,2018-02-28,4,71,10,122,259,34,https://r-ix.nl/content/customerlist,No,,383
601,Malaysia,"Kuala Lumpur",Asia-Pacific,"Malaysia Internet Exchange",http://www.myix.my/,Active,20061215,779150,3.13000,101.70000,75,249000000,0,0,0.000000,Yes,0000-00-00,1,73,1,28,127,15,http://www.myix.my/our-members/ordinary,Yes,KUL,249
1234,Luxembourg,Luxembourg,Europe,"Luxembourg Commercial Internet Exchange",http://www.lu-cix.lu/,Active,20100000,0,49.62000,6.22000,79,231000000,113300000,25000000,0.000000,No,2021-04-03,1,74,1,59,121,35,http://www.lu-cix.lu/members-list.html,No,,383
917,Poland,Poznan,Europe,"Poznan Internet Exchange",https://www.pozix.pl/,Active,20060310,0,52.42000,16.83000,15,230000000,90000000,29000000,0.000000,No,2020-01-31,5,75,9,162,359,36,https://www.pozix.pl/en/,No,,383
1341,"United Arab Emirates",Dubai,Europe,"UAE-IX by DE-CIX",https://www.uae-ix.net/,Active,20120224,2438,25.25000,55.33000,70,218400000,94200000,45000000,0.000000,Yes,2021-04-03,1,77,1,66,138,37,https://www.uae-ix.net/customers-partners/customers/,Yes,DXB,383
804,Romania,Bucharest,Europe,InterLAN-IX,https://www.interlan.ro/,Active,20070000,269021,44.50000,26.13000,120,195024290,143639530,49747279,0.000000,Yes,2021-07-11,1,81,1,41,78,40,https://www.interlan.ro/?t=5,Yes,OTP,383
121,Italy,Torino,Europe,"Torino Piemonte Exchange Point",https://www.top-ix.org/it/home/,Active,20020400,217948,45.22000,7.65000,120,191926000,97600000,10000000,0.000000,Yes,2021-04-03,2,82,3,41,78,41,https://www.top-ix.org/en/connected_networks/,Yes,TRN,383
94,Greece,Athens,Europe,"GR-IX Athens",https://www.gr-ix.gr/,Active,20000000,0,37.90000,23.70000,57,180228614,131793157,56737236,0.000000,Yes,2021-07-11,1,83,1,74,161,42,https://www.gr-ix.gr/members/,No,ATH,383
174,Norway,Oslo,Europe,"Norwegian Internet Exchange Oslo 1",http://www.nix.no/,Active,19930300,0,59.95000,10.70000,91,159000000,0,30000000,0.000000,No,2021-04-03,1,85,1,54,110,44,https://www.nix.no/who-is-connected/,No,,383
1269,Russia,"St. Petersburg",Europe,"DataIX St Petersburg",http://www.dataix.ru/,Active,20101020,0,59.93000,30.30000,298,160000000,0,20000000,0.000000,No,2021-04-03,2,86,3,13,21,45,http://www.dataix.ru/members/,No,LED,383
332,"United States",Portland,"North America","Northwest Access Exchange",http://www.nwax.net/,Active,20021200,242807,45.52000,-122.68000,96,159466308,107672187,53076237,0.000000,Yes,2021-07-11,12,87,14,15,100,14,http://www.nwax.net/Members,Yes,"PDX, PDX",253
1149,"United States","New York","North America","Digital Realty New York Internet Exchange",https://ix.digitalrealty.com/,Active,20090000,145150,40.75000,-74.00000,68,158000000,0,50000000,0.000000,Yes,2021-04-03,13,88,22,24,140,15,https://ix.digitalrealty.com/,Yes,LGA,253
117,Israel,"Tel Aviv",Europe,"Israeli Internet Exchange",https://en.isoc.org.il/iix/about-iix,Active,19960000,0,32.00000,34.90000,20,157490000,61000000,25000000,0.000000,Yes,2021-04-03,1,89,1,147,322,46,https://en.isoc.org.il/iix/iix-users,Yes,TLV,383
627,Sweden,Stockholm,Europe,"Stockholm Internet Exchange",https://www.sthix.net/,Active,20070000,0,59.33000,18.05000,122,150609965,96576272,37849121,0.000000,No,2021-07-11,2,91,2,38,74,48,https://www.sthix.net/index.php/home/connected-networks/,No,,383
630,"United States","Kansas City","North America","Kansas City Internet Exchange",http://www.kcix.net/,Active,20060000,118857,39.10000,-94.58000,72,150000000,0,25000000,0.000000,Yes,2021-04-03,14,92,20,22,134,16,http://www.kcix.net/,Yes,MCI,253
237,Taiwan,Taipei,Asia-Pacific,"Taipei Internet Exchange (TPIX)",http://www.tpix.net.tw/,Active,20020702,0,25.03000,121.52000,42,150000000,75,35000000,0.000000,No,2021-04-03,2,92,1,48,212,16,http://www.tpix.net.tw/mem_list.html,No,TPE,249
88,Germany,Hamburg,Europe,"DE-CIX Hamburg",https://www.de-cix.net/en/locations/germany/hamburg,Active,20070000,274962,53.55000,10.03000,215,146200000,87200000,30000000,0.000000,Yes,2021-06-10,5,96,4,22,38,49,https://www.de-cix.net/en/locations/germany/hamburg/connected-networks,No,,383
613,"Czech Republic",Prague,Europe,"Neutral czFree eXchange",http://www.nfx.cz/,Active,20070000,0,50.08000,14.43000,10,145880000,69890000,18000000,0.000000,No,2021-04-03,3,97,3,187,431,50,http://www.nfx.cz/clenove,No,,383
29,Brazil,"São Paulo","Latin America","Equinix São Paulo",https://ix.equinix.com,Active,19980000,0,-23.62000,-46.65000,50,140000000,100000000,76000000,50.000000,No,0000-00-00,8,98,16,19,178,11,,No,,137
58,Ecuador,Quito,"Latin America","NAP AEPROVI Quito",http://aeprovi.org.ec/es/napec,Active,20030000,0,-0.15000,-78.48000,21,137529197,59186211,11855227,0.000000,No,2021-07-10,1,99,1,36,306,12,http://aeprovi.org.ec/es/napec/topologia,No,,137
120,Italy,Rome,Europe,"Roma Internet Exchange Point",https://www.namex.it/,Active,19960000,0,41.90000,12.45000,168,125975615,85432303,31611684,0.000000,Yes,2021-07-11,3,103,2,30,54,52,https://www.namex.it/connected_networks/,Yes,FCO,383
8,Australia,Melbourne,Asia-Pacific,"IX Australia (Melbourne VIC)",https://www.ix.asn.au/peering/,Active,20110000,0,-37.82000,144.97000,119,110300000,51400000,39100000,0.000000,No,2020-07-09,4,106,5,17,80,20,https://www.ix.asn.au/peers-vic/,No,,249
516,Russia,Krasnoyarsk,Europe,"Krasnoyarsk Internet Exchange",http://www.red-ix.ru/,Active,20060000,0,56.17000,92.50000,48,106520000,54330000,23260000,0.000000,No,2021-04-03,4,107,18,90,186,53,http://www.red-ix.ru/members/,No,,383
209,"South Africa",Johannesburg,Africa,"Johannesburg Internet Exchange",https://ispa.org.za/,Active,19960600,219839,-26.13000,28.23000,122,92248506,59904565,24954500,0.000000,Yes,2021-07-11,3,108,3,3,74,4,https://ispa.org.za/,Yes,"HLA, JNB",81
51,Croatia,Zagreb,Europe,"Croatian Internet Exchange",https://www.cix.hr/,Active,20000000,0,45.82000,16.03000,34,50462966,34851626,12462276,0.000000,Yes,2021-07-09,1,110,1,115,241,54,https://www.cix.hr/clanice/clanice,Yes,ZAG,383
894,Japan,Tokyo,Asia-Pacific,"JPNAP Tokyo II - Ikebukuro",http://www.jpnap.net/english/jpnap-tokyo-ii/index.html,Active,20080401,0,35.55000,139.78000,5,100000000,48000000,19000000,0.000000,No,2019-03-25,5,111,14,118,571,21,http://www.jpnap.net/english/jpnap-tokyo-ii/customer.html,No,,249
1350,Serbia,Belgrade,Europe,"Serbian Open Exchange",http://www.sox.rs/,Active,20100900,303547,44.82958,20.46547,40,100000000,0,0,0.000000,Yes,0000-00-00,1,111,1,104,221,55,http://www.sox.rs/en/?id=News&lang=en,Yes,BEG,383
1233,Italy,Milan,Europe,"Milan Neutral Access Point",https://www.minap.it/,Active,20080000,0,45.45000,9.17000,75,95733018,63903779,25511075,0.000000,No,2021-07-11,4,115,4,63,127,57,https://www.minap.it/members/,No,,383
20,Brazil,Brasília,"Latin America","Ponto de Troca de Tráfego do Brasília",https://ix.br/adesao/df,Active,20090000,0,-15.78000,-47.93000,93,94730000,30600000,5000000,0.000000,No,2021-04-03,9,116,9,12,105,13,http://ix.br/particip/df,No,,137
186,Portugal,Lisbon,Europe,"Gigabit Portuguese Internet Exchange Point",https://gigapix.pt/en/index/,Active,19951000,181368,38.73000,-9.15000,44,86010000,56600000,20000000,0.000000,Yes,2021-04-03,1,118,2,99,205,58,https://gigapix.pt/en/members/,Yes,LIS,383
1271,Germany,Munich,Europe,"DE-CIX Munich",https://www.de-cix.net/en/locations/germany/munich,Active,20100400,262737,48.13000,11.70000,217,85200000,60300000,22000000,0.000000,Yes,2021-06-10,6,119,3,21,37,59,https://www.de-cix.net/en/locations/germany/munich/connected-networks,No,,383
195,Russia,"St. Petersburg",Europe,"MSK-IX St. Petersburg",http://www.msk-ix.ru/eng/,Active,20090000,0,59.93000,30.30000,103,83400000,0,0,0.000000,No,2016-06-06,6,122,8,48,93,61," http://www.msk-ix.ru/en/members/",No,,383
1241,Russia,Simferopol,Europe,"Crimea Internet Exchange",https://crimea-ix.net/,Active,20060220,0,44.95210,34.10240,53,77000000,37900000,15000000,0.000000,No,2021-04-03,7,123,16,80,168,62,https://crimea-ix.net/members.html,No,,383
1128,Italy,Padova,Europe,"VSIX NAP del Nord Est",https://www.vsix.it/,Active,20090901,0,45.40000,11.85000,1,73090000,28600000,5000000,0.000000,No,2021-04-05,5,124,12,260,675,63,https://www.vsix.it/it/chi-siamo/aderenti.htm,No,,383
128,Japan,Osaka,Asia-Pacific,NSPIXP-3,http://nspixp.wide.ad.jp/3/,Active,19970300,0,34.53000,135.50000,23,72000000,0,0,0.000000,No,0000-00-00,6,125,9,64,294,23,,No,,249
145,"South Korea",Seoul,Asia-Pacific,"LGDACOM Internet Exchange",,Active,19961000,0,37.50000,126.93000,52,70000000,0,0,0.000000,No,0000-00-00,2,126,3,36,170,24,,No,,249
539,Philippines,Manila,Asia-Pacific,"Philippine Open Internet Exchange",http://phopenix.net/,Active,20070000,725560,14.58000,120.95000,60,68680000,43820000,20000000,0.000000,Yes,2021-04-03,1,129,1,33,156,26,http://phopenix.net/members/,Yes,MNL,249
373,"United States","Los Angeles","North America","Any2 California",https://www.coresite.com/,Active,20051200,621289,33.97000,-118.25000,449,68000000,0,0,0.000000,Yes,2009-06-22,20,130,1,1,10,22,https://www.coresite.com/solutions/interconnection/peering-exchanges/any2-internet-peering-exchange/any2-peering-participants,Yes,SNA,253
369,"United States","San Francisco","North America","San Francisco Metropolitan Internet Exchange",https://www.sfmix.org/,Active,20060500,240175,37.78000,-122.43000,75,67000000,0,25000000,0.000000,Yes,2021-04-03,21,132,19,20,127,23,https://www.sfmix.org/participants,Yes,SFO,253
1332,"United Kingdom",Manchester,Europe,"IXManchester powered by LINX",https://www.linx.net/,Active,20120429,4695,53.35000,-2.27000,89,64000000,45000000,20000000,0.000000,Yes,2018-08-22,3,134,4,55,111,66,https://portal.linx.net/members/list-ip-asn,Yes,MAN,383
9,Australia,Perth,Asia-Pacific,"IX Australia (Perth WA)",https://www.ix.asn.au/peering/,Active,19970000,32274,-31.93000,115.95000,100,61200000,29400000,20700000,0.000000,Yes,2020-07-09,6,137,7,19,97,29,https://www.ix.asn.au/peers-wa/,Yes,PER,249
1319,China,"Hong Kong",Asia-Pacific,"AMS-IX Hong Kong",https://ams-ix.hk/,Active,20120401,0,22.33000,114.18000,58,61045000,31879000,530000,3.070990,No,2021-04-03,2,138,3,35,159,30,https://ams-ix.hk/connected_parties,No,,249
211,Spain,Barcelona,Europe,"Catalunya Neutral Internet Exchange Point",http://www.catnix.net/,Active,19990407,122769,41.28000,2.07000,46,59830000,36000000,10000000,0.000000,Yes,2021-04-03,3,140,3,95,196,68,http://www.catnix.net/participants.json,Yes,BCN,383
205,Slovenia,Ljubljana,Europe,"Slovenian Internet Exchange",http://arnes.splet.arnes.si/infrastruktura/six-sticisce-omrezij/,Active,19940200,0,46.22000,14.48000,27,59480000,32300000,14000000,0.000000,No,2021-04-03,1,141,1,125,267,69,http://www.arnes.si/infrastruktura/six-sticisce-omrezij/clanstvo-v-six/,No,,383
1077,"United States",Boston,"North America","Massachusetts Internet Exchange",http://mass-ix.net/,Active,20150514,237255,42.37000,-71.03000,43,52000000,0,18000000,0.000000,Yes,2021-04-03,22,144,29,32,209,25,http://mass-ix.net/peering.html,Yes,BVY,253
54,"Czech Republic",Brno,Europe,"Brno Internet Exchange Point",http://www.br-ix.cz/,Active,0,0,49.15000,16.70000,7,51000000,0,12000000,0.000000,No,2021-01-05,4,145,4,217,517,70,,No,,383
189,Romania,Bucharest,Europe,"Romanian National Internet Exchange",http://www.ronix.ro/,Active,20010907,0,44.50000,26.13000,38,47000000,30000000,11000000,0.000000,No,2019-02-03,2,148,3,106,228,71,https://www.ronix.ro/en/members-2/,No,,383
56,Denmark,Copenhagen,Europe,"Danish Internet Exchange",http://www.dix.dk/,Active,19940500,0,55.67000,12.57000,48,44207242,0,0,0.000000,No,2017-02-22,2,151,2,90,186,72,http://www.dix.dk/connectednetworks.html,No,,383
22,Brazil,Florianópolis,"Latin America","Ponto de Troca de Tráfego do Florianópolis",https://ix.br/adesao/sc,Active,20080000,0,-27.58000,-48.57000,92,44180000,6040000,2000000,0.000000,No,2021-04-03,11,152,10,13,107,15,https://ix.br/particip/sc,No,,137
190,Russia,Ekaterinburg,Europe,"MSK-IX Ekaterinburg",https://www.msk-ix.ru/en/,Active,20121201,0,56.80000,60.63000,62,43200000,0,0,0.000000,No,2016-06-06,8,154,13,70,150,74,https://www.msk-ix.ru/en/members/,No,,383
325,"United States","Palo Alto","North America","Equinix Palo Alto",https://www.equinix.com/services/interconnection-connectivity/,Active,19941200,1342039,37.44000,-122.15000,92,41000000,0,0,0.000000,Yes,0000-00-00,24,156,16,17,107,28,,Yes,PAO,253
206,"South Africa","Cape Town",Africa,"Cape Town Internet Exchange",https://ispa.org.za/,Active,20090700,96641,-33.98000,18.60000,62,38953149,23561757,10260128,0.000000,Yes,2021-07-11,4,158,6,6,150,6,https://ispa.org.za/membership/list-of-members/,Yes,CPT,81
1200,Brazil,Recife,"Latin America","Ponto de Troca de Trafego do Recife",https://ix.br/adesao/pe,Active,20091201,0,-8.07000,-34.85000,108,36440000,6960000,2000000,0.000000,No,2021-04-05,12,160,7,10,87,16,https://ix.br/particip/pe,No,,137
69,Finland,Helsinki,Europe,"Finnish Communication and Internet Exchange Helsinki",https://www.ficix.fi/,Active,19930000,0,60.17000,25.00000,47,36000000,0,0,0.000000,No,2013-03-20,1,162,1,92,188,76,https://www.ficix.fi/membership/ficix-jasenet/,No,,383
143,Kenya,Nairobi,Africa,"Kenya Internet Exchange Point",https://www.tespok.co.ke/?page_id=11648,Active,20010200,184030,-1.32000,36.82000,51,35356586,21514739,5934746,0.000000,Yes,2021-07-09,1,165,1,8,174,7,https://www.tespok.co.ke/?page_id=11646,Yes,NBO,81
1362,"South Africa",Durban,Africa,"Durban Internet eXchange",https://wiki.inx.net.za/display/pub/DINX+-+Durban+Internet+Exchange,Active,20120914,6730,-29.97000,30.95000,71,32231377,17604509,4755308,0.000000,Yes,2021-07-11,5,166,5,5,136,8,,Yes,DUR,81
71,France,Lyon,Europe,"Lyon Internet Exchange",http://www.lyonix.net/fr/,Active,20100601,31926,45.72000,4.95000,93,31999434,18292891,8545850,0.000000,Yes,2021-07-11,5,168,5,53,105,77,http://www.lyonix.net/en/lyonix-members,Yes,LYS,383
1194,Bulgaria,Sofia,Europe,"Balkan Internet Exchange",http://www.b-ix.net/,Active,20100000,0,42.65000,23.38000,47,31130000,69420000,30000000,0.000000,No,2021-04-05,3,169,3,92,188,78,http://www.b-ix.net/members/peers/,No,,383
57,Ecuador,Guayaquil,"Latin America","NAP AEPROVI Guayaquil",http://aeprovi.org.ec/es/napec,Active,20030000,0,-2.15000,-79.88000,10,28413636,14195605,3208774,0.000000,No,2021-07-11,2,173,3,60,431,17,http://aeprovi.org.ec/es/napec/topologia,No,,137
479,"Democratic Republic of Congo",Kinshasa,Africa,"Kinshasa Internet Exchange",http://www.ispa-drc.cd/,Active,20021100,263,-4.38000,15.43000,11,26690000,7220000,1500000,0.000000,Yes,2021-04-03,1,177,1,21,425,9,http://www.ispa-drc.cd/index.php?option=com_content&view=article&id=2&Itemid=4,Yes,FIH,81
164,"New Zealand",Auckland,Asia-Pacific,"Auckland Peering Exchange",http://ape.nzix.net/,Active,19990810,112,-37.02000,174.80000,83,26610000,7800000,3000000,0.000000,Yes,2021-04-03,3,178,3,25,116,40,http://ape.nzix.net/ape-peers.html,Yes,AKL,249
1276,Brazil,Goiânia,"Latin America","Ponto de Troca de Trafego do Goiânia",https://ix.br/adesao/gyn,Active,20101020,0,-16.67000,-49.25000,38,26520000,3160000,500000,0.000000,No,2021-04-03,13,179,20,25,228,18,https://ix.br/particip/gyn,No,,137
192,Russia,Novosibirsk,Europe,"MSK-IX Novosibirsk",https://www.msk-ix.ru/en/,Active,20040000,0,55.03000,82.90000,73,26500000,0,0,0.000000,No,2016-06-06,9,180,12,65,131,80,https://www.msk-ix.ru/en/members/,No,,383
362,"Viet Nam",Hanoi,Asia-Pacific,"Vietnam National Internet Exchange",https://www.vnnic.vn/en/dns-vnix/about-vnix-system,Active,20031108,0,21.03000,105.85000,10,24500000,0,0,0.000000,No,0000-00-00,1,181,2,92,431,41,https://www.vnnic.vn/en/dns-vnix/vnix-member-isp,No,,249
229,Sweden,Sundsvall,Europe,"Netnod Sundsvall",https://www.netnod.se,Active,20000000,0,62.38000,17.30000,8,24483000,742707,200000,0.000000,No,2021-04-03,3,183,10,206,486,82,https://www.netnod.se/ix/networks,No,,383
59,Egypt,Cairo,Africa,"Cairo Internet Exchange",http://www.caix.net.eg/,Active,20020500,2209,30.13000,31.40000,7,24400000,15400000,9540000,0.000000,Yes,2021-03-05,1,184,2,34,517,10,http://www.caix.net.eg/index.php/member-list,Yes,CAI,81
159,Nepal,Kathmandu,Asia-Pacific,"Nepal Internet Exchange - Putalisadak",http://www.npix.net.np/,Active,20020800,1207,27.70000,85.37000,47,23792273,9545029,2043563,0.000000,Yes,2021-07-11,1,185,1,41,188,42,http://www.npix.net.np/members,Yes,KTM,249
134,Japan,Tokyo,Asia-Pacific,"Network Service Provider IXP (Distributed IX in Edo)",http://nspixp.wide.ad.jp/2/,Active,19961000,6969,35.55000,139.78000,46,23000000,0,0,0.000000,Yes,2014-09-20,7,187,8,46,196,43,,Yes,NRT,249
907,Indonesia,Jakarta,Asia-Pacific,"Biznet Internet Exchange",http://www.biznetnetworks.com/en/company/network/biznet-internet-exchange/,Active,20060000,0,-6.17444,106.82944,39,23000000,0,4000000,0.000000,No,2021-04-03,2,187,5,53,224,43,http://www.biznetnetworks.com/en/company/network/biznet-internet-exchange/,No,,249
82,Germany,Düsseldorf,Europe,"Megaport Düsseldorf IX",https://www.megaport.com/,Active,20030000,238972,51.28000,6.76000,118,22900000,0,0,0.000000,Yes,2012-01-23,8,189,7,43,81,83,,No,,383
705,Germany,Stuttgart,Europe,"Stuttgarter Internet Exchange",http://www.stuttgart-ix.de/,Active,20050400,0,48.83000,9.20000,27,21679759,12743764,2683383,0.000000,No,2021-07-11,9,192,18,125,267,85,http://www.stuttgart-ix.de/teilnehmer/,No,,383
19,Brazil,"Belo Horizonte","Latin America","Ponto de Troca de Tráfego do Belo Horizonte",https://ix.br/adesao/mg/,Active,20100100,0,-19.63000,-43.97000,109,21030000,10700000,1100000,0.000000,No,2021-04-03,16,197,6,9,85,22,http://ix.br/particip/mg,No,,137
89,Germany,Munich,Europe,"Megaport Munich IX",https://www.megaport.com,Active,19940600,169259,48.13000,11.70000,52,20000000,0,0,0.000000,Yes,2015-10-31,11,200,13,82,170,88,,Yes,"FRA, MUC",383
988,Curaçao,Willemstad,"Latin America","Caribbean Internet Exchange",https://cw.ams-ix.net/,Active,20090420,0,12.12240,-68.88240,14,19850052,12820022,2000002,0.000170,No,2021-04-03,1,203,1,50,373,23,https://cw.ams-ix.net/connected_parties,No,,137
228,Sweden,Stockholm,Europe,SOLIX,http://www.solix.se/,Active,20011200,0,59.33000,18.05000,69,19360000,10770000,4200000,0.000000,No,2021-04-03,4,204,3,67,139,91,https://apps.db.ripe.net/db-web-ui/,No,,383
231,Switzerland,Geneva,Europe,"CERN IXP / Equinix Geneva",https://cixp.net/,Active,19950000,0,46.25000,6.13000,44,18600000,6690000,4000000,0.000000,Yes,2021-02-03,2,206,5,99,205,93,https://cixp.net/technical/peering,Yes,GVA,383
978,Ukraine,Kherson,Europe,"Kherson Internet Exchange",https://ix.ks.ua/,Active,20080000,0,46.63000,32.57000,14,16800000,0,0,0.000000,No,2021-04-03,4,214,5,167,373,97,,No,,383
1275,Brazil,"Campina Grande","Latin America","Ponto de Troca de Trafego do Campina Grande",https://ix.br/adesao/cpv,Active,20100928,0,-7.22000,-35.88000,78,16260000,11300000,1000,0.000000,No,2021-04-03,18,215,11,14,124,25,https://ix.br/particip/cpv,No,,137
16,Bangladesh,Dhaka,Asia-Pacific,"Bangladesh Internet Exchange",http://www.bdix.net/,Active,20040826,4640,23.77000,90.38000,79,13260078,17543135,2794484,0.000000,Yes,2021-03-08,1,222,1,27,121,49,http://www.bdix.net/members.html,Yes,DAC,249
248,Uganda,Kampala,Africa,"Uganda Internet Exchange",https://www.uixp.co.ug/,Active,20030700,6803,0.32000,32.62000,29,12420360,8187366,2581914,0.000000,Yes,2021-07-11,1,224,1,10,259,12,https://www.uixp.co.ug/networks,Yes,KLA,81
193,Russia,Samara,Europe,"MSK-IX Samara",https://www.msk-ix.ru/eng/,Active,20090000,0,53.25000,50.45000,35,12400000,0,0,0.000000,No,2014-08-20,11,225,22,114,240,100,https://www.msk-ix.ru/en/members/,No,,383
982,Haiti,"Port au Prince","Latin America","AHTIC Internet Exchange Point",http://ixp.ht/,Active,20090505,63,18.57000,-72.30000,9,12000000,0,200000,0.000000,Yes,2021-03-05,1,227,1,65,466,27,,Yes,PAP,137
946,"United States",Phoenix,"North America","Digital Realty Phoenix Internet Exchange",https://ix.digitalrealty.com/,Active,20080602,141909,33.45070,-112.06840,9,10500000,0,1200000,0.000000,Yes,2021-04-03,36,234,68,76,466,40,https://ix.digitalrealty.com/,Yes,PHX,253
100,Iceland,Reykjavik,Europe,"Reykjavik Internet Exchange",http://www.rix.is/,Active,19990000,0,64.12000,-21.90000,27,10223170,5970366,2797444,0.000000,Yes,2021-07-10,1,235,1,125,267,104,http://www.rix.is/connected.html,Yes,KEF,383
1263,Indonesia,Jakarta,Asia-Pacific,"Matrix Cable System Internet Exchange",https://nap.net.id/mcixservice.html,Active,20110000,323959,-6.17444,106.82944,68,10000000,0,0,0.000000,Yes,0000-00-00,3,236,3,31,140,51,,Yes,JKT,249
1018,Brazil,Salvador,"Latin America","Ponto de Troca de Trafego do Salvador",https://ix.br/adesao/ba,Active,20080000,0,-13.02000,-38.52000,104,10000000,14700000,6000000,0.000000,No,2021-11-03,21,236,8,11,90,29,https://ix.br/particip/ba,No,,137
242,Tanzania,"Dar es Salaam",Africa,"TIX Tanzania - Dar es Salaam",https://www.tix.or.tz/,Active,20030700,7773,-6.87000,39.20000,42,9340000,6739000,1120000,0.000000,Yes,2021-04-03,1,239,1,9,212,15,https://www.tix.or.tz/peers.html,Yes,DAR,81
297,"United States","Los Angeles","North America","Los Angeles International Internet Exchange",http://www.laiix.net/,Active,19960000,117076,33.97000,-118.25000,32,9200000,0,4600000,0.000000,Yes,2018-09-28,37,240,36,40,250,41,http://www.laiix.net/members/,No,,253
2,Argentina,"Buenos Aires","Latin America","CABASE IXP Buenos Aires",https://www.cabase.org.ar/nap-buenos-aires/,Active,19980401,17224,-34.57000,-58.42000,125,9190000,0,0,0.000000,Yes,2015-02-15,1,241,1,7,72,30,https://www.cabase.org.ar/nap-buenos-aires/,No,EZE,137
1236,Latvia,Riga,Europe,"Santa Monica Internet Local Exchange",http://www.smile-ixp.net/,Active,20051011,327,56.97000,24.05000,39,8900000,0,0,0.000000,Yes,0000-00-00,1,242,2,105,224,105,,No,RIX,383
171,"New Zealand",Wellington,Asia-Pacific,"Wellington Internet Exchange",http://wix.nzix.net/,Active,19961200,6325,-41.33000,174.80000,89,8000000,0,0,0.000000,Yes,2021-04-03,4,246,2,23,111,53,http://ape.nzix.net/wix-peers.html,Yes,WLG,249
222,Sweden,Gothenburg,Europe,"Netnod Gothenburg",https://www.netnod.se/,Active,19980000,0,57.67000,12.30000,13,7884000,4268000,1500000,0.000000,No,2021-04-03,5,249,7,170,385,108,https://www.netnod.se/ix/networks,No,,383
92,Germany,Nuremberg,Europe,"Nürnberger Internet Exchange",http://www.n-ix.net/,Active,20030000,8942,49.50000,11.08000,45,6400000,4090000,2000000,0.000000,No,2021-06-10,12,256,15,97,200,110,http://www.n-ix.net/teilnehmer/teilnehmerliste/,No,,383
103,India,Mumbai,Asia-Pacific,"National Internet Exchange of India",http://nixi.in/en/,Active,20030719,0,19.00000,72.80000,44,5368709,2713657,1375315,0.000000,No,2021-07-11,7,261,5,47,205,56,https://nixi.in/en/connected-networks/mumbai,No,,249
350,"United States","St. Louis","North America","MidWest-IX - St. Louis",https://www.midwest-ix.com/locations/stlouis/index.html,Active,20170119,176708,38.58000,-90.20000,18,5300000,0,0,0.000000,Yes,0000-00-00,39,262,51,57,335,44,https://www.midwest-ix.com/locations/stlouis/index.html,Yes,STL,253
66,"United Kingdom",London,Europe,"XchangePoint London IPP",,Active,20010000,0,51.48000,-0.45000,166,5300000,0,0,0.000000,No,0000-00-00,4,262,3,31,55,115,,No,,383
918,Poland,Warsaw,Europe,"Thinx Poland",https://www.atman.pl/main-eng.html,Active,20060000,0,52.23000,21.00000,187,5200000,3100000,1000000,0.000000,No,2019-06-30,6,264,5,26,46,116,https://www.atman.pl/Members-list-clinks-eng-74.html,No,,383
928,"United States",Chicago,"North America","CoreSite - Any2",https://www.coresite.com/solutions/interconnection/peering-exchanges/any2-internet-peering-exchange,Active,20080100,0,41.85000,-87.65000,10,5000000,0,0,0.000000,No,0000-00-00,40,268,66,74,431,45,,No,,253
93,Ghana,Accra,Africa,"Ghana Internet Exchange",http://www.gixa.org.gh/,Active,20051018,3137,5.60000,-0.17000,21,4800000,30000000,1800000,0.000000,Yes,2019-04-20,1,270,1,11,306,17,http://www.gixa.org.gh/members/,Yes,ACC,81
236,Switzerland,Zurich,Europe,"Equinix Zurich",https://www.equinix.com/locations/europe-colocation/switzerland-colocation/zurich-data-centers/index/,Active,19990000,0,47.48000,8.53000,45,4600000,0,0,0.000000,Yes,2008-01-13,3,272,4,97,200,118,,No,ZRH2,383
1232,"United Kingdom",Leeds,Europe,"Leeds Internet Exchange",https://www.ixleeds.net/,Active,20100920,11769,53.80000,-1.55000,21,4500000,2090000,500000,0.000000,Yes,2020-05-13,5,273,9,143,306,119,https://www.ixleeds.net/content/members.html,Yes,LBA,383
1046,Russia,Rostov-on-Don,Europe,"MSK-IX Rostov-on-Don",http://www.msk-ix.ru/eng/,Active,20090000,0,47.25000,39.82000,38,4160000,0,0,0.000000,No,2014-08-20,15,274,21,106,228,120,http://www.msk-ix.ru/en/members/,No,,383
105,India,Chennai,Asia-Pacific,"National Internet Exchange of India",http://nixi.in/en/noc-locations/55?view=noclocation,Active,20030719,0,13.07000,80.20000,24,1772953,1187758,438772,0.000000,No,2021-07-11,8,279,8,63,289,59,https://nixi.in/en/connected-networks/chennai,No,,249
110,Indonesia,Jakarta,Asia-Pacific,"Indonesian Internet Exchange",https://www.iix.net.id/,Active,19970800,31888,-6.17444,106.82944,252,3400000,0,0,0.000000,Yes,0000-00-00,4,280,2,5,31,60,,Yes,JKT,249
1134,Russia,Ulyanovsk,Europe,"Ulyanovsk Internet Exchange",http://www.uln-ix.ru/,Active,20090508,0,54.32000,48.33000,14,3280000,0,0,0.000000,No,2017-03-28,16,281,30,167,373,121,http://www.uln-ix.ru/partners/,No,,383
884,"United States",Tampa,"North America","Tampa Internet Exchange",http://www.tpaix.net/,Active,20151005,61688,27.95000,-82.45000,12,3100000,0,550000,0.000000,Yes,2021-04-03,41,282,62,70,407,47,http://tampix.com/members.html,No,TPA,253
508,Netherlands,Leeuwarden,Europe,"Friese Internet Exchange",http://www.fr-ix.nl/,Active,20060126,0,53.22000,5.57000,38,3100000,3,800000,0.000000,No,2018-10-14,6,282,7,106,228,122,http://www.fr-ix.nl/index.php?option=com_content&view=article&id=121&Itemid=107,No,,383
556,Germany,Frankfurt,Europe,"KleyReX Internet Exchange",http://www.kleyrex.net/,Active,20020900,0,50.12000,8.68000,138,3060000,0,0,0.000000,No,2011-02-01,13,285,6,37,66,124,http://www.kleyrex.net/teilnehmer.php,No,,383
1198,Argentina,Neuquén,"Latin America","CABASE IXP Neuquén",https://www.cabase.org.ar/nap-neuquen/,Active,20100510,29,-38.93330,-68.13330,21,2210000,0,0,0.000000,Yes,0000-00-00,3,296,3,36,306,42,https://www.cabase.org.ar/nap-neuquen/,No,NQN,137
43,China,Beijing,Asia-Pacific,"Beijing National Internet Exchange Center",,Active,20000400,0,39.93000,116.28000,11,2000000,0,0,0.000000,No,0000-00-00,4,298,7,91,425,61,,No,,249
765,Rwanda,Kigali,Africa,"Rwanda Internet exchange",http://www.rinex.org.rw/,Active,20030000,2796,-1.97000,30.12000,9,1769381,1759362,1765450,0.000000,Yes,2021-05-02,1,304,1,30,466,18,https://rinex.org.rw/?-Connected-Networks-,Yes,KGL,81
244,Thailand,Bangkok,Asia-Pacific,"CAT National Internet Exchange",http://www.cat.net.th/cat-thix/index.php,Active,19970900,0,13.92000,100.60000,20,1700000,0,0,0.000000,No,0000-00-00,2,305,2,67,322,62,,No,,249
932,Angola,Luanda,Africa,"Angola Internet Exchange",http://www.aapsi.og.ao/aapsi/index.php/,Active,20060317,512,-8.85000,13.23000,21,1600000,0,0,0.000000,Yes,0000-00-00,2,307,1,11,306,19,http://www.aapsi.og.ao/aapsi/index.php/membros/associados,Yes,NDD,81
1297,Grenada,"St. Georges","Latin America","Grenada Internet Exchange",https://ixgd.wordpress.com/,Active,20110512,182,12.05363,-61.74995,9,1550000,780000,200000,0.000000,Yes,2013-12-04,1,309,1,65,466,47,https://ixgd.wordpress.com/membership/,Yes,GND,137
506,Italy,Florence,Europe,"Tuscany Internet Exchange",https://www.tix.it/en/web/guest/home,Active,20030000,0,43.80000,11.20000,33,1500000,560000,100000,0.000000,No,2017-10-31,7,310,5,118,248,131,https://www.tix.it/en/elencoisp,No,,383
897,Ukraine,"Donetsk ",Europe,"Donetsk Internet Exchange",http://www.ix.dn.ua/,Active,20011223,745,48.08000,37.75000,12,1300000,0,0,0.000000,No,2014-06-09,6,313,6,181,407,132,http://www.ix.dn.ua/networks/index.html,No,,383
987,"Sint Maarten",Philipsburg,"Latin America","Open Caribbean Internet eXchange",http://www.ocix.net/,Active,20081000,0,18.02600,-63.04582,8,1300000,736000,300000,0.000000,No,2018-08-14,1,313,1,70,486,49,http://www.ocix.net/ocix/index.php?option=com_content&task=view&id=14&Itemid=23,No,,137
70,Finland,Tampere,Europe,"Tampere Region Exchange",http://www.trex.fi/,Active,20030803,1276,61.42000,23.58000,21,1200000,370000,100000,0.000000,Yes,2018-04-02,3,317,2,143,306,134,http://www.trex.fi/members.html,Yes,TMP,383
104,India,"New Delhi",Asia-Pacific,"National Internet Exchange of India",http://nixi.in/index.php?option=com_noclocation&task=click&id=52&Itemid=28,Active,20030719,0,28.58000,77.20000,34,1176081,781349,386428,0.000000,No,2021-07-11,9,318,7,56,241,63,https://nixi.in/en/connected-networks/delhi-noida,No,,249
1223,Russia,Kazan,Europe,"MSK-IX Kazan",http://www.msk-ix.ru/eng/,Active,20100500,0,55.81749,49.10889,27,1120000,0,0,0.000000,No,2013-12-09,17,320,25,125,267,135," http://www.msk-ix.ru/en/members/",No,,383
559,Estonia,Tallinn,Europe,"Tallinn Internet Exchange (TLLIX)",https://www.citictel-cpc.com/EN/HK/Pages/product-services/tallinn-internet-exchange,Active,20051100,0,59.35000,24.80000,10,1100000,0,200000,0.000000,No,2018-02-27,1,321,4,187,431,136,,No,,383
239,Taiwan,Taipei,Asia-Pacific,"Taiwan Network Access Point",http://www.nap.net.tw/,Active,20010000,0,25.03000,121.52000,16,1000000,0,0,0.000000,No,0000-00-00,3,325,3,75,349,65,,No,,249
367,Botswana,Gaborone,Africa,"Botswana Internet Exchange",http://www.info.bw/bispa/binx.html,Active,20051000,277,-24.67000,25.92000,14,1000000,0,0,0.000000,Yes,0000-00-00,1,325,1,15,373,21,http://www.info.bw/bispa/binx.html,Yes,GBE,81
1267,"United States",Guam,"North America","Guam Internet Exchange",http://www.gu-ix.net/,Active,20110000,0,13.47511,144.74844,5,1000000,0,0,0.000000,No,0000-00-00,45,325,80,92,571,53,http://www.gu-ix.net/members.html,No,,253
1008,Australia,Canberra,Asia-Pacific,"IX Australia ACT",https://www.ix.asn.au/peering/,Active,20081001,0,-35.30000,149.17999,7,1000000,0,0,0.000000,No,0000-00-00,14,325,19,105,517,65,https://www.ix.asn.au/peers-act/,No,,249
1316,Canada,Winnipeg,"North America","Manitoba Internet Exchange",http://www.mbix.ca/,Active,20130729,227724,49.88330,-97.15000,29,960250,396000,100000,0.000000,Yes,2021-04-03,8,336,5,41,259,54,http://www.mbix.ca/peers/,Yes,YWG,253
1206,"United States",Dallas,"North America","Digital Realty Dallas Internet Exchange",https://ix.digitalrealty.com/,Active,20070000,158,32.77000,-96.77000,9,900000,0,79000,0.000000,Yes,2021-04-03,46,338,68,76,466,55,https://ix.digitalrealty.com/,Yes,DFW,253
230,Sweden,Umeå,Europe,NorrNod,http://www.norrnod.se/,Active,19960000,0,63.80000,20.28000,7,743000,160000,22000,0.000000,No,2021-04-03,7,343,11,217,517,142,http://www.norrnod.se/knutpunkt/anslutna.html,No,,383
1044,Russia,Vladivostok,Europe,"MSK-IX Vladivostok",http://www.msk-ix.ru/eng/,Active,20080000,457,43.12000,131.89999,34,528000,0,0,0.000000,No,2013-12-09,19,353,23,115,241,147,http://www.msk-ix.ru/en/members/,No,,383
68,Estonia,Tallinn,Europe,"Tallinn Internet Exchange (TIX)",http://tix.estpak.ee,Active,20020000,0,59.35000,24.80000,6,0,0,0,0.000000,No,2014-01-12,2,362,2,170,385,151,http://tix.estpak.ee/?members,No,,383
712,France,Alsace,Europe,EuroGIX,http://www.eurogix.net/fr/,Active,20020304,0,50.40000,6.00000,9,348000,0,0,0.000000,No,2017-01-14,8,369,14,200,466,153,http://www.eurogix.net/fr/membres-eurogix,No,,383
1384,Russia,Stavropol,Europe,"MSK-IX Stavropol",http://www.msk-ix.ru/eng/,Active,20090000,0,45.05000,41.96670,20,240000,0,0,0.000000,No,2013-12-09,20,372,27,147,322,154,http://www.msk-ix.ru/en/members/,No,,383
363,"Viet Nam","Ho Chi Minh City",Asia-Pacific,"Viet Nam National Internet Exchange",https://www.vnnic.vn/en/dns-vnix/about-vnix-system,Active,20040300,0,10.75000,106.67000,15,160000,0,0,0.000000,No,0000-00-00,2,379,1,79,359,72,https://www.vnnic.vn/en/dns-vnix/vnix-member-isp,No,,249
1225,Austria,Klagenfurt,Europe,"Alpes Adria Internet Exchange",,Active,20100000,265,46.65000,14.33000,8,150000,0,0,0.000000,Yes,0000-00-00,2,381,5,206,486,156,,Yes,KLU,383
156,Mauritius,Ebene,Africa,"Mauritius Internet Exchange",https://www.mixp.org/,Active,20051200,346,-20.24435,57.49175,10,144000,0,4000,0.000000,Yes,2021-04-03,1,384,1,22,431,35,https://www.mixp.org/#members,Yes,MRU,81
12,Australia,Sydney,Asia-Pacific,"Equinix Sydney",https://www.equinix.com/resources/data-sheets/equinix-internet-exchange/,Active,20030000,203976,-33.95000,151.17999,177,0,0,0,0.000000,Yes,0000-00-00,16,387,3,8,49,73,,Yes,SYD,249
547,Zambia,Lusaka,Africa,"Zambia Internet Exchange Point",http://www.ispa.org.zm,Active,20060200,0,-15.41639,28.28428,13,103000,0,0,0.000000,No,0000-00-00,1,388,1,16,385,36,http://www.ispa.org.zm/members.html,No,,81
606,Tanzania,Arusha,Africa,"TIX Tanzania - Arusha",http://www.aixp.or.tz/,Active,20060626,747,-3.33000,36.62000,6,100000,0,0,0.000000,Yes,0000-00-00,3,389,3,40,549,37,,Yes,ARK,81
1367,Vanuatu,"Port Vila",Asia-Pacific,"Vanuatu Internet Exchange",http://www.vix.vu/,Active,20130214,70,-17.75000,168.32000,7,81900,0,0,0.000000,Yes,0000-00-00,1,392,1,105,517,74,,Yes,VLI,249
1364,Dominica,Roseau,"Latin America","Dominica National Internet Exchange Point",http://www.danix.dm/,Active,20130227,52,15.30000,-61.40000,4,67470,0,0,0.000000,Yes,2017-02-22,1,395,1,91,600,67,,No,DOM,137
181,Peru,Lima,"Latin America","NAP Perú",http://www.nap.pe/,Active,20010514,0,-12.00000,-77.12000,15,66340,17380000,4000000,0.000000,No,2020-11-19,2,396,2,46,359,68,http://www.nap.pe/nuestros-asociados/,No,,137
693,Lebanon,Beirut,Europe,"Beirut Internet Exchange",http://www.beirutix.net/,Active,20071206,760,33.82000,35.48000,12,61800,0,0,0.000000,Yes,2015-08-08,2,397,2,181,407,159,http://www.beirutix.net/members-list.htm,Yes,BEY,383
52,Cuba,Havana,"Latin America","NAP de Cuba",http://www.etecsa.cu/internet_conectividad/internet/,Active,20010600,0,23.05105,-82.61291,5,50000,0,0,0.000000,No,0000-00-00,1,400,1,86,571,69,,No,,137
162,Netherlands,Enschede,Europe,"Nederlands-Duitse Internet Exchange",https://www.ndix.net/,Active,20010400,0,52.22000,6.90000,31,50000,0,0,0.000000,No,0000-00-00,7,400,9,119,255,161,https://www.ndix.net/uploads/attachment_file/59/NDIX_IPv4__IPv6_Peering_List.pdf,No,,383
879,Sweden,Malmö,Europe,"Internet exchange point of the Oresund Region",http://www.ixor.se/,Active,20091014,0,55.57000,13.07000,19,48000,0,0,0.000000,No,0000-00-00,11,402,5,150,333,162,,No,,383
14,Austria,Graz,Europe,"Grazer Internet Exchange",http://www.grax.at/,Active,20100304,0,47.07030,15.43890,14,36400,0,0,0.000000,No,2017-04-03,3,406,4,167,373,163,http://www.grax.at/,No,,383
176,Panama,"Panama City","Latin America","Intered Panamá",http://intered.org.pa/intered/,Active,19970902,0,8.97000,-79.53000,211,34700,0,0,0.000000,No,0000-00-00,1,407,1,5,42,71,,No,,137
933,Ukraine,Odessa,Europe,"Odessa Internet Exchange",http://www.od-ix.net/,Active,20070900,0,46.43000,30.77000,25,28700,0,0,0.000000,No,2017-09-21,8,409,4,135,283,164,http://www.od-ix.net/?page_id=43,No,,383
6,Australia,Melbourne,Asia-Pacific,AUSIX,,Active,20010700,0,-37.82000,144.97000,7,20000,0,0,0.000000,No,0000-00-00,18,412,19,105,517,77,,No,,249
1312,Sudan,Khartoum,Africa,"Sudan Internet Exchange Point",http://www.sixp.sd/,Active,20111000,96,15.60214,32.58693,7,16400,0,0,0.000000,Yes,2016-09-01,1,414,1,34,517,41,http://www.sixp.sd/brtg.php,Yes,KRT,81
158,Mozambique,Maputo,Africa,"Mozambique Internet Exchange",http://www.mozix.org.mz/,Active,20020700,1986,-25.92000,32.57000,15,14700,0,0,0.000000,Yes,2016-11-22,1,415,1,14,359,42,,Yes,MPM,81
53,Cyprus,Lefkosia,Europe,"Cyprus Internet Exchange",https://www.cyta.com.cy/telephony-internet,Active,19990000,0,35.17000,33.37000,3,10000,0,0,0.000000,No,0000-00-00,1,417,1,249,631,166,,No,,383
1029,Malawi,Blantyre,Africa,"Malawi IXP",http://www.mispa.org.mw/mix.html,Active,20081201,273,-15.78333,35.00000,2,10000,0,0,0.000000,Yes,0000-00-00,1,417,1,53,664,44,http://www.mispa.org.mw/members.html,Yes,BLZ,81
106,India,Kolkata,Asia-Pacific,"National Internet Exchange of India",http://nixi.in/index.php?option=com_noclocation&task=click&id=53&Itemid=28,Active,20030719,0,22.57000,88.40000,10,7556,2059,533,0.000000,No,2021-07-11,12,419,13,92,431,78,https://nixi.in/en/connected-networks/kolkata,No,,249
225,Sweden,Luleå,Europe,"Netnod Luleå",https://www.netnod.se/,Active,20040900,0,65.58000,22.15000,6,4947,2520,1200,0.000000,No,2021-04-03,12,421,12,225,549,167,https://www.netnod.se/ix/networks,No,,383
1021,India,Hyderabad,Asia-Pacific,"National Internet Exchange of India",http://nixi.in/index.php?option=com_noclocation&task=click&id=59&Itemid=28,Active,20080000,0,17.45000,78.47000,8,2097,1201,507,0.000000,No,2021-07-11,13,425,15,102,486,80,https://nixi.in/en/connected-networks/hyderabad,No,,249
1020,India,Bangalore,Asia-Pacific,"National Internet Exchange of India",http://nixi.in/index.php?option=com_noclocation&task=click&id=60&Itemid=28,Active,20080000,0,12.95000,77.65000,4,1570,525,221,0.000000,No,2021-07-11,14,428,18,125,600,81,https://nixi.in/en/connected-networks/bangalore,No,,249
1283,Laos,Vientiane,Asia-Pacific,"Lao National Internet Center",http://www.lanic.gov.la/,Active,20100901,0,17.95000,102.57000,7,1000,0,0,0.000000,No,0000-00-00,1,430,1,105,517,82,,No,,249
1022,India,Ahmedabad,Asia-Pacific,"National Internet Exchange of India",http://nixi.in/index.php?option=com_noclocation&task=click&id=58&Itemid=28,Active,20080000,0,23.07000,72.63000,4,20,3,0,0.000000,No,2021-07-11,15,435,18,125,600,83,https://nixi.in/en/connected-networks/ahmedabad,No,,249
593,Egypt,Cairo,Africa,"Middle East Internet eXchange",http://www.gpxglobal.net/,Active,20070500,0,30.13000,31.40000,10,15,0,0,0.000000,No,2015-10-11,2,437,1,22,431,51,,No,,81
467,"United States","Los Angeles","North America","Equinix Los Angeles IBX",http://www.equinix.com/,Active,20020711,360747,33.97000,-118.25000,72,0,0,0,0.000000,Yes,0000-00-00,52,439,20,22,134,63,,Yes,BUR,253
317,"United States","New York","North America","Equinix New York IBX",https://www.equinix.com/,Active,20030311,0,40.75000,-74.00000,66,0,0,0,0.000000,No,0000-00-00,52,439,23,25,144,63,https://www.equinix.com/resources/,Yes,LGA,253
357,"United States",Vienna,"North America",Equinix-VA,https://www.equinix.com/,Active,20010910,0,38.89362,-77.22228,5,0,0,0,0.000000,No,0000-00-00,52,439,80,92,571,63,,No,,253
1052,Germany,Hamburg,Europe,"Megaport Hamburg IX",https://www.megaport.com/,Active,20090121,226947,53.55000,10.03000,63,0,0,0,0.000000,Yes,0000-00-00,16,439,11,69,148,170,,Yes,FRA,383
168,"New Zealand","Palmerston North",Asia-Pacific,"Palmerston North Internet Exchange",http://pnix.nzix.net/,Active,20041130,10,-40.32000,175.60001,4,0,0,0,0.000000,No,0000-00-00,5,439,7,125,600,84,,No,,249
144,"South Korea",Seoul,Asia-Pacific,6NGIX,https://vsix.kr/eng/biz/contents/0000000101/getContents.do,Active,20010800,0,37.50000,126.93000,82,0,0,0,0.000000,No,0000-00-00,4,439,1,26,118,84,https://vsix.kr/eng/biz/contents/0000000101/getContents.do,No,,249
142,Japan,Tokyo,Asia-Pacific,"Equinix IBX Tokyo",https://www.equinix.com/locations/japan-colocation/tokyo-data-centers/,Active,20010529,0,35.55000,139.78000,94,0,0,0,0.000000,No,0000-00-00,8,439,4,21,102,84,,No,,249
402,Australia,Sydney,Asia-Pacific,"PIPE Networks Sydney",http://www.pipenetworks.com/pipeix.php,Active,20030000,0,-33.95000,151.17999,92,0,0,0,0.000000,No,0000-00-00,19,439,8,22,107,84,http://www.pipenetworks.com/pipeix-who.php,No,,249
323,"United States","New York","North America","Equinix-NY(former Paix)",https://www.equinix.com/,Active,20000314,261547,40.75000,-74.00000,80,0,0,0,0.000000,Yes,0000-00-00,52,439,18,19,120,63,,No,,253
1365,Estonia,Tallinn,Europe,"Tallinn Governmental Internet Exchange",,Active,20090700,116563,59.35000,24.80000,11,0,0,0,0.000000,Yes,0000-00-00,3,439,3,186,425,170,,Yes,TLL,383
330,"United States",Pittsburgh,"North America","Three Rivers Optical Exchange",https://www.3rox.net/index.php,Active,20120529,0,40.45000,-79.95000,0,0,0,0,0.000000,No,0000-00-00,52,439,105,119,678,63,,No,,253
337,"United States","San Francisco","North America","Equinix San Francisco",,Active,20010700,0,37.78000,-122.43000,0,0,0,0,0.000000,No,0000-00-00,52,439,105,119,678,63,,No,,253
344,"United States",Seattle,"North America",Equinix-Seattle,https://www.equinix.com/,Active,20000313,114,47.61000,-122.33000,0,0,0,0,0.000000,Yes,0000-00-00,52,439,105,119,678,63,,Yes,SEA,253
339,"United States","San Jose","North America","Equinix IBX San Jose",https://www.equinix.com/,Active,20000525,0,37.33000,-121.88000,212,0,0,0,0.000000,No,0000-00-00,52,439,4,5,41,63,,No,,253
400,Australia,Canberra,Asia-Pacific,"PIPE Networks Canberra",http://www.pipenetworks.com/pipeix.php,Active,20040600,0,-35.30000,149.17999,0,0,0,0,0.000000,No,0000-00-00,19,439,25,143,678,84,http://www.pipenetworks.com/pipeix-who.php,No,,249
347,"United States",Secaucus,"North America","Equinix IBX Secaucus",https://www.equinix.com/,Active,20000314,0,40.79000,-74.06000,0,0,0,0,0.000000,No,0000-00-00,52,439,105,119,678,63,,No,,253
388,Australia,Hobart,Asia-Pacific,"PIPE Networks Hobart",http://www.pipenetworks.com/pipeix-locations.php,Active,20030800,0,-42.83000,147.48000,1,0,0,0,0.000000,No,0000-00-00,19,439,24,142,675,84,http://www.pipenetworks.com/pipeix-who.php,No,,249
141,Japan,Fukuoka,Asia-Pacific,"BBIX Fukuoka",http://www.bbix.net/en/service/ix/,Active,20041000,0,33.58000,130.38000,0,0,0,0,0.000000,No,0000-00-00,8,439,15,143,678,84,,No,,249
139,Japan,Nagoya,Asia-Pacific,"BBIX Nagoya",http://www.bbix.net/en/service/ix/,Active,20050500,0,35.12000,136.93000,0,0,0,0,0.000000,No,0000-00-00,8,439,15,143,678,84,,No,,249
191,Russia,Moscow,Europe,"MSK-IX Moscow",https://www.msk-ix.ru/en/,Active,19951125,0,55.75000,37.60000,459,0,0,0,0.000000,No,2016-06-06,23,439,1,5,9,170,https://www.msk-ix.ru/en/members/,No,,383
909,"United States",Albuquerque,"North America","New Mexico Internet Exchange",http://www.nmix.net/index.html,Active,20080000,0,35.08000,-106.65000,0,0,0,0,0.000000,No,0000-00-00,52,439,105,119,678,63,,No,,253
266,"United States",Boston,"North America",Equinix-Boston,https://www.equinix.com/locations/united-states-colocation/boston-data-center/,Active,20000720,0,42.37000,-71.03000,0,0,0,0,0.000000,No,0000-00-00,52,439,105,119,678,63,,No,,253
308,"United States",Miami,"North America",Equinix-Miami,https://www.equinix.com/locations/united-states-colocation/miami-data-centers/,Active,20121203,0,25.83000,-80.29000,0,0,0,0,0.000000,No,0000-00-00,52,439,105,119,678,63,,Yes,MIA,253
1097,France,Paris,Europe,"Equinix Paris",http://www.equinix-ix.fr/,Active,20080000,86,48.80000,2.33000,350,0,0,0,0.000000,Yes,0000-00-00,9,439,3,10,16,170,http://www.equinix-ix.fr/members.php,No,,383
834,China,"Hong Kong",Asia-Pacific,"Equinix Hong Kong",https://www.equinix.hk/services/interconnection-connectivity/internet-exchange/,Active,20090000,0,22.33000,114.18000,0,0,0,0,0.000000,No,0000-00-00,6,439,10,143,678,84,,No,,249
587,"United States","New York","North America","Peer 1 Internet Exchange",https://www.cogecopeer1.com/,Active,20040109,0,40.75000,-74.00000,0,0,0,0,0.000000,No,0000-00-00,52,439,105,119,678,63,,No,,253
315,"United States","New Jersey","North America","MAGPI Gigapop",http://www.magpi.org/,Active,20060000,0,40.72000,-74.17000,0,0,0,0,0.000000,No,0000-00-00,52,439,105,119,678,63,,No,,253
1108,Ireland,Galway,Europe,"eXchange West",http://www.exwest.net/,Active,20090604,0,53.28000,-9.02000,2,0,0,0,0.000000,No,0000-00-00,3,439,4,257,664,170,http://www.exwest.net/,No,,383
1264,"New Zealand",Hamilton,Asia-Pacific,"Hamilton Internet Exchange",http://hix.nzix.net/hix.html,Active,20100000,0,-37.76692,175.28687,2,0,0,0,0.000000,No,0000-00-00,5,439,8,139,664,84,http://hix.nzix.net/hix-peers.html,No,,249
215,Spain,Madrid,Europe,"Terremark NAP de las Americas - Madrid",http://www.verizonenterprise.com/products/it-solutions/colocation-services/data-centers/europe-middle-east-africa/nap/nap-of-madrid.xml,Active,20041000,0,40.43000,-3.70000,2,0,0,0,0.000000,No,0000-00-00,6,439,8,257,664,170,,No,,383
187,Portugal,Porto,Europe,"Gigabit Portuguese Internet Exchange Point Porto",https://gigapix.pt/en/index/,Active,20110100,0,41.16210,-8.62200,2,0,0,0,0.000000,No,0000-00-00,3,439,4,257,664,170,https://gigapix.pt/en/members/,No,,383
137,Japan,Tokyo,Asia-Pacific,"BBIX Tokyo",http://www.bbix.net/en/service/ix/,Active,20030700,0,35.55000,139.78000,149,0,0,0,0.000000,No,0000-00-00,8,439,2,13,60,84,,No,,249
278,"United States",Dallas,"North America","Equinix IBX Dallas",https://ix.equinix.com/home/,Active,20010615,190355,32.77000,-96.77000,143,0,0,0,0.000000,Yes,0000-00-00,52,439,7,8,63,63,,Yes,DFW,253
219,"Sri Lanka",Colombo,Asia-Pacific,"Sri Lanka Internet Exchange",http://www.lankacom.net/our-solutions/web-hosting,Active,20010701,318,6.90000,79.87000,3,0,0,0,0.000000,Yes,0000-00-00,1,439,1,133,631,84,,Yes,CMB,249
268,"United States",Chicago,"North America","Equinix Chicago IBX",https://www.equinix.com/,Active,20020304,377033,41.85000,-87.65000,129,0,0,0,0.000000,Yes,0000-00-00,52,439,9,10,70,63,,Yes,ORD,253
361,"Viet Nam","Da Nang city",Asia-Pacific,"Vietnam National Internet Exchange",https://www.vnnic.vn/en/dns-vnix/about-vnix-system,Active,20050700,0,16.06670,108.23330,3,0,0,0,0.000000,No,0000-00-00,3,439,3,133,631,84,https://www.vnnic.vn/en/dns-vnix/vnix-member-isp,No,,249
1348,"United States",Boston,"North America","Boston Internet Exchange",https://www.markleygroup.com/services/boston-internet-exchange,Active,20120409,121606,42.37000,-71.03000,61,0,0,0,0.000000,Yes,0000-00-00,52,439,25,28,153,63,https://www.markleygroup.com/services/boston-internet-exchange,Yes,BOS,253
1238,Poland,Lodz,Europe,"Lodz Internet Exchange",http://www.lix.net.pl/,Active,20090000,0,51.75920,19.45600,18,0,0,0,0.000000,No,2017-09-11,7,439,8,151,335,170,http://www.lix.net.pl/uczestnicy/,No,,383
138,Japan,Osaka,Asia-Pacific,"BBIX Osaka",http://www.bbix.net/en/service/ix/,Active,20030900,0,34.53000,135.50000,16,0,0,0,0.000000,No,0000-00-00,8,439,11,75,349,84,,No,,249
629,France,Paris,Europe,"French National Internet Exchange IPv6",http://www.fnix6.net/,Active,20021101,0,48.80000,2.33000,16,0,0,0,0.000000,No,0000-00-00,9,439,9,157,349,170,http://www.fnix6.net/members/,No,,383
984,"Dominican Republic","Santo Domingo","Latin America","NAP del Caribe",https://www.napdelcaribe.net.do/,Active,20080700,0,18.43000,-69.88000,15,0,0,0,0.000000,No,0000-00-00,2,439,1,46,359,74,,No,,137
259,"United States",Atlanta,"North America","Equinix Atlanta",https://www.equinix.com/locations/united-states-colocation/atlanta-data-centers/,Active,20041203,0,33.86000,-84.40000,23,0,0,0,0.000000,No,0000-00-00,52,439,44,50,294,63,,No,,253
303,"United States",Madison,"North America","Madison Internet Exchange",https://kb.wisc.edu/ns/page.php?id=6636,Active,20000000,0,43.12000,-89.52000,22,0,0,0,0.000000,No,0000-00-00,52,439,47,53,302,63,https://kb.wisc.edu/ns/page.php?id=6636,No,,253
336,"United States","San Diego","North America","San Diego Network Access Point",https://www.caida.org/projects/sdnap/,Active,19980200,0,32.72000,-117.16000,0,0,0,0,0.000000,No,0000-00-00,52,439,48,54,306,63,,No,,253
1317,"United States",Jacksonville,"North America","Jacksonville Internet Exchange",http://jxix.org/,Active,20120102,951,30.33218,-81.65565,10,0,0,0,0.000000,Yes,0000-00-00,52,439,66,74,431,63,http://jxix.org/index.php/participants/,Yes,JAX,253
41,Chile,Santiago,"Latin America","NAP Chile",http://www.nap.cl/,Active,19970900,0,-33.38000,-70.78000,21,0,0,0,0.000000,No,0000-00-00,4,439,3,36,306,74,http://www.nap.cl/f_proveedores.html,No,,137
165,"New Zealand",Christchurch,Asia-Pacific,"Christchurch Internet Exchange",http://chix.nzix.net/,Active,20070000,3464,-43.48000,172.55000,12,0,0,0,0.000000,No,0000-00-00,5,439,5,86,407,84,http://pnix.nzix.net/chix-peers.html,No,,249
592,"United States",Honolulu,"North America",DRFxchange,https://www.drfortress.com/services/internet-exchange/drfxchange/,Active,20070108,0,21.30000,-157.83000,13,0,0,0,0.000000,No,0000-00-00,52,439,59,67,385,63,https://www.drfortress.com/services/internet-exchange/peering-and-connectivity/,No,,253
354,"United States",Houston,"North America","Southeast Texas GigaPOP",http://jason8825.wixsite.com/setg,Active,19970000,0,29.75000,-95.35000,11,0,0,0,0.000000,No,0000-00-00,52,439,65,73,425,63,http://jason8825.wixsite.com/setg/participants-c1ylq,No,,253
864,Sweden,Gothenburg,Europe,"Gothenburg Internet Exchange",http://www.gix.se/,Active,20051221,0,57.67000,12.30000,15,0,0,0,0.000000,No,0000-00-00,13,439,6,162,359,170,,No,,383
1230,France,Toulouse,Europe,TouIX,http://www.touix.net/,Active,20090416,0,43.60530,1.44280,13,0,0,0,0.000000,No,0000-00-00,9,439,10,170,385,170,http://www.touix.net/en/membres,No,,383
272,"United States",Chicago,"North America",StarLight,http://www.startap.net/starlight,Active,20010300,0,41.85000,-87.65000,15,0,0,0,0.000000,No,0000-00-00,52,439,55,62,359,63,http://www.startap.net/starlight/NETWORKS/,No,,253
985,Colombia,Bogota,"Latin America","Equinix Bogota",https://ix.equinix.com,Active,20080300,0,4.70000,-74.13000,14,0,0,0,0.000000,No,0000-00-00,2,439,2,50,373,74,,No,,137
321,"United States","New York","North America","Big Apple Peering Exchange",http://www.ny6ix.net/,Active,20010000,0,40.75000,-74.00000,14,0,0,0,0.000000,No,0000-00-00,52,439,56,64,373,63,http://www.ny6ix.net/,No,,253
387,Australia,Adelaide,Asia-Pacific,"PIPE Networks Adelaide",http://www.pipenetworks.com/pipeix-locations.php,Active,20030000,0,-34.93000,138.52000,13,0,0,0,0.000000,No,0000-00-00,19,439,18,82,385,84,http://www.pipenetworks.com/pipeix-who.php,No,,249
926,Lithuania,Vilnius,Europe,"Lithuanian Internet service providers exchange unit",http://is.lt/lt/titulinis.html,Active,20080000,0,54.63000,25.28000,5,0,0,0,0.000000,No,0000-00-00,3,439,4,233,571,170,,No,,383
111,Indonesia,Jakarta,Asia-Pacific,"Jakarta Internet Exchange"," https://www.glc.ntt.com/en/services/service-in-indonesia/data-center/internet-exchange.html",Active,20180600,0,-6.17444,106.82944,9,0,0,0,0.000000,No,0000-00-00,7,439,9,99,466,84,,No,,249
574,Slovakia,Bratislava,Europe,"NIX.SK - exSitelIX",https://www.nix.sk/sk,Active,20050801,0,48.20000,17.20000,55,0,0,14000000,0.000000,No,2020-11-19,3,439,2,77,164,170,https://www.nix.sk/en/networks,No,,383
723,Poland,Kraków,Europe,"Cracow Internet Exchange",http://cix.krakow.pl/,Active,20091100,0,50.08000,19.80000,52,0,0,0,0.000000,No,0000-00-00,7,439,6,82,170,170,http://cix.krakow.pl/?page_id=14,No,,383
163,Netherlands,Groningen,Europe,Groningen-IX,http://www.gn-ix.net/,Active,20010000,0,53.13000,6.58000,51,0,0,0,0.000000,No,0000-00-00,8,439,5,84,174,170,,No,,383
135,Japan,Tokyo,Asia-Pacific,"Network Service Provider IXP-6",http://www.wide.ad.jp/,Active,19990800,0,35.55000,139.78000,51,0,0,0,0.000000,No,0000-00-00,8,439,6,38,174,84,http://member.wide.ad.jp/nspixp6/peering-status.html,No,,249
767,Norway,Oslo,Europe,"Free Internet eXchange Oslo",http://www.fixo.no/static/index,Active,20080116,0,59.95000,10.70000,55,0,0,0,0.000000,No,0000-00-00,7,439,2,77,164,170,http://www.fixo.no/static/members,No,,383
287,"United States",Honolulu,"North America","Hawaii Internet Exchange",http://www.hawaii.edu/hix/,Active,19950700,1695,21.30000,-157.83000,8,0,0,0,0.000000,No,0000-00-00,52,439,70,79,486,63,http://www.hawaii.edu/hix/Hawaii_Internet_Exchange/Networks.html,No,,253
703,"United States",Billings,"North America","Yellowstone Regional Internet Exchange",http://www.yrix.org/,Active,20030000,0,45.77000,-108.48000,8,0,0,0,0.000000,No,0000-00-00,52,439,70,79,486,63,http://www.yrix.org/participants.php,No,,253
202,Singapore,Singapore,Asia-Pacific,"Singapore Open Exchange",http://sox.net.sg/,Active,20010800,107022,1.37000,103.98000,27,0,0,0,0.000000,Yes,0000-00-00,4,439,5,60,267,84,http://sox.net.sg/members.html,No,SIN,249
1373,France,Grenoble,Europe,GrenoblIX,http://www.grenoblix.net/fr/,Active,20130000,0,45.19000,5.72000,8,0,0,0,0.000000,No,0000-00-00,9,439,17,206,486,170,http://communication.rezopole.net/participants.php?ix=grenoblix,No,,383
389,Australia,Melbourne,Asia-Pacific,"PIPE Networks Melbourne",http://www.pipenetworks.com/pipeix.php,Active,20030700,0,-37.82000,144.97000,32,0,0,0,0.000000,No,0000-00-00,19,439,15,57,250,84,http://www.pipenetworks.com/pipeix-who.php,No,,249
725,Poland,Wroclaw,Europe,"Wroclaw Internet eXchange",http://wrix.org/,Active,20010200,0,51.11670,17.03330,38,0,0,0,0.000000,No,0000-00-00,7,439,7,106,228,170,http://wrix.org/uczestnicy/,No,,383
1187,Turkey,Istanbul,Europe,"Istanbul Internet Exchange",https://www.istix.com.tr/,Active,20100000,28,40.97000,28.82000,0,0,0,0,0.000000,No,0000-00-00,2,439,2,206,486,170,https://www.istix.com.tr/en/member-list/,No,,383
1132,Italy,Udine,Europe,"Friuli Venezia Giulia Internet Exchange",http://www.fvg-ix.net,Active,20090000,0,46.03000,13.18000,8,0,0,0,0.000000,No,0000-00-00,8,439,8,206,486,170,http://www.fvg-ix.net,No,,383
13,Australia,Brisbane,Asia-Pacific,"PIPE Networks Brisbane",http://www.pipenetworks.com/pipeix.php,Active,20020500,0,-27.38000,153.10001,36,0,0,0,0.000000,No,0000-00-00,19,439,14,55,238,84,http://www.pipenetworks.com/pipeix-who.php,No,,249
1,Argentina,"Buenos Aires","Latin America",Cubecorp,http://www.cubecorp.com.ar/,"Not an exchange",0,0,-34.57000,-58.42000,0,0,0,0,0.000000,No,0000-00-00,,,,,,,,No,,137
3,Australia,Adelaide,Asia-Pacific,"South Australian Internet Exchange",http://www.saia.asn.au/saix,Defunct,19960700,0,-34.93000,138.52000,0,0,0,0,0.000000,No,0000-00-00,,,,,,,,No,,249
4,Australia,Brisbane,Asia-Pacific,"AusBONE-Brisbane Internet Exchange",http://www.ausbone.net/whyisps.htm,Defunct,19971000,0,-27.38000,153.10001,0,0,0,0,0.000000,No,0000-00-00,,,,,,,,No,,249
5,Australia,Melbourne,Asia-Pacific,"AusBONE-Melbourne Internet Exchange",http://www.ausbone.net/whyisps.htm,Defunct,19970000,0,-37.82000,144.97000,0,0,0,0,0.000000,No,0000-00-00,,,,,,,,No,,249
7,Australia,Melbourne,Asia-Pacific,"Melbourne NAPette",http://peer.sensation.net.au/,Defunct,19990400,0,-37.82000,144.97000,0,0,0,0,0.000000,No,0000-00-00,,,,,,,,No,,249
10,Australia,Sydney,Asia-Pacific,"AusBONE-Sydney Internet Exchange",http://www.ausbone.net/whyisps.htm,Defunct,19971000,0,-33.95000,151.17999,0,0,0,0,0.000000,No,0000-00-00,,,,,,,,No,,249
11,Australia,Sydney,Asia-Pacific,"Pihana Sydney",,"Not an exchange",0,0,-33.95000,151.17999,0,0,0,0,0.000000,No,0000-00-00,,,,,,,,No,,249
18,Belgium,Brussels,Europe,"Free Belgian Internet Exchange",http://www.freebix.net/,Defunct,20030904,0,50.90000,4.53000,0,0,0,0,0.000000,No,0000-00-00,,,,,,,http://www.freebix.net/members,No,,383
21,Brazil,Paraná,"Latin America","Ponto de Troca de Tráfego do Paraná",https://ix.br/adesao/pr,Defunct,20020600,0,-25.25210,-52.02150,0,0,0,0,0.000000,No,2017-11-09,,,,,,,http://ix.br/particip/pr,No,,137
23,Brazil,"Porto Alegre","Latin America","Rio Grande do Sul Internet Exchange",http://rs.ptt.br/,Deprecated,20001120,0,-30.00000,-51.18000,0,0,0,0,0.000000,No,2017-10-19,,,,,,,,No,,137
24,Brazil,"Rio De Janeiro","Latin America","Optiglobe Internet Exchange - Latin America",,Defunct,0,0,-22.90000,-43.17000,0,0,0,0,0.000000,No,0000-00-00,,,,,,,,No,,137
25,Brazil,"São Paulo","Latin America",Daedalus,,Defunct,0,0,-23.62000,-46.65000,0,0,0,0,0.000000,No,0000-00-00,,,,,,,,No,,137
26,Brazil,"São Paulo","Latin America","Diveo NAP",,"Not an exchange",0,0,-23.62000,-46.65000,0,0,0,0,0.000000,No,0000-00-00,,,,,,,,No,,137
27,Brazil,"São Paulo","Latin America","NAP Abranet (Not an exchange)",,"Not an exchange",0,0,-23.62000,-46.65000,0,0,0,0,0.000000,No,0000-00-00,,,,,,,,No,,137
28,Brazil,"São Paulo","Latin America",Tivit,http://www2.tivit.com.br/internet2/,Defunct,0,0,-23.62000,-46.65000,0,0,0,0,0.000000,No,0000-00-00,,,,,,,,No,,137
31,Brazil,"São Paulo","Latin America",Telcomp,http://www.telcomp.org.br/,Defunct,20030000,0,-23.62000,-46.65000,0,0,0,0,0.000000,No,0000-00-00,,,,,,,,No,,137
32,Bulgaria,Sofia,Europe,GoCIS,,Unknown,0,0,42.65000,23.38000,0,0,0,0,0.000000,No,0000-00-00,,,,,,,,No,,383
33,Bulgaria,Sofia,Europe,"Sofia Internet Exchange",,Defunct,0,0,42.65000,23.38000,0,0,0,0,0.000000,No,0000-00-00,,,,,,,,No,,383
34,Cambodia,"Phnom Penh",Asia-Pacific,"Finder Internet Exchange",http://www.finder.com.kh/,Defunct,20030600,0,11.55000,104.85000,0,0,0,0,0.000000,No,0000-00-00,,,,,,,,No,,249
35,Canada,Edmonton,"North America","Edmonton Internet Exchange",http://www.eix.net/,Defunct,0,0,53.54440,-113.49090,0,0,0,0,0.000000,No,0000-00-00,,,,,,,,No,,253
36,Canada,Montreal,"North America","Quebec Internet Exchange/RISQ",http://www.risq.qc.ca/reseau/architecture/archi_section.php?LANG=EN&S=qix,"Not an exchange",0,0,45.47000,-73.75000,0,0,0,0,0.000000,No,0000-00-00,,,,,,,,No,,253
37,Canada,Ottawa,"North America","Ottawa Internet Exchange",http://www.ottix.net/,Defunct,20010410,394,45.40000,-75.72000,0,0,0,0,0.000000,No,2018-06-12,,,,,,,http://www.ottix.net/peers.html,No,YOW,253
38,Canada,Toronto,"North America",CANIX,http://www.canix.ca/toronto.php,Defunct,0,0,43.67000,-79.40000,0,0,0,0,0.000000,No,0000-00-00,,,,,,,http://www.canix.ca/toronto.php,No,,253
40,Canada,Vancouver,"North America","British Columbia Internet Exchange",http://www.bcix.net/,"Not an exchange",0,0,49.18000,-123.17000,0,0,0,0,0.000000,No,0000-00-00,,,,,,,http://www.bcix.net/member_info/membership_categories.htm,No,,253
42,Chile,,"Latin America","Chile Network Access Point",,Unknown,0,0,,,0,0,0,0,0.000000,No,0000-00-00,,,,,,,,No,,137
44,China,Beijing,Asia-Pacific,"TerreNAP Beijing",http://www.corporate-ir.net/ireye/ir_site.zhtml?ticker=tww&script=410&layout=-6&item_id=137869,Unknown,0,0,39.93000,116.28000,0,0,0,0,0.000000,No,0000-00-00,,,,,,,,No,,249
45,China,Guangzhou,Asia-Pacific,,,Unknown,20001200,0,23.13915,113.24146,0,0,0,0,0.000000,No,0000-00-00,,,,,,,,No,,249
46,China,Shanghai,Asia-Pacific,"Asia Pacific Internet Exchange",,"Not an exchange",0,0,31.40000,121.47000,0,0,0,0,0.000000,No,0000-00-00,,,,,,,,No,,249
47,China,Shanghai,Asia-Pacific,"Shanghai City Exchange",,Unknown,0,0,31.40000,121.47000,0,0,0,0,0.000000,No,0000-00-00,,,,,,,,No,,249
48,China,Shanghai,Asia-Pacific,"Shanghai Internet Exchange",http://www.sii.com.cn/html/en/infoport/internet_exchange_center.htm,Unknown,20001200,0,31.40000,121.47000,0,0,0,0,0.000000,No,0000-00-00,,,,,,,,No,,249
50,Colombia,,"Latin America",CIN,,Unknown,0,0,,,0,0,0,0,0.000000,No,0000-00-00,,,,,,,,No,,137
60,Egypt,Cairo,Africa,"Cairo Regional Internet Exchange",http://www.cr-ix.net,Defunct,20020500,0,30.13000,31.40000,0,0,0,0,0.000000,No,0000-00-00,,,,,,,,No,,81
61,"United Kingdom",London,Europe,"LoNAP/XchangePoint shared interconnect",http://www.xchangepoint.net/ourpartners/LoNAP-XP-iconnect.html,Defunct,20040000,0,51.48000,-0.45000,0,0,0,0,0.000000,No,0000-00-00,,,,,,,,No,,383
63,"United Kingdom",London,Europe,"London Internet Providers Exchange",http://www.lipex.net,Defunct,20011000,0,51.48000,-0.45000,0,0,0,0,0.000000,No,2009-03-20,,,,,,,http://www.lipex.net/peers/,No,,383
65,"United Kingdom",London,Europe,UK6X,http://uk6x.net,Defunct,0,0,51.48000,-0.45000,0,0,0,0,0.000000,No,0000-00-00,,,,,,,,No,,383
67,"United Kingdom",Manchester,Europe,"Manchester Network Access Point",http://www.manap.net/,Unknown,19970000,0,53.35000,-2.27000,0,0,0,0,0.000000,No,0000-00-00,,,,,,,http://www.manap.net/members.php?sort=Company_name,No,,383
72,France,Paris,Europe,Free-IX,http://www.FreeIX.net,Defunct,20000000,0,48.80000,2.33000,0,0,0,0,0.000000,No,2008-12-02,,,,,,,http://tools.freeix.net/freeix/cgi-bin/members.pl,No,,383
73,France,Paris,Europe,"Metropolitan Area Ethernet-Paris",http://www.mae.net/fac/mae-paris.htm,Unknown,0,0,48.80000,2.33000,0,0,0,0,0.000000,No,0000-00-00,,,,,,,http://www.mae.net/fac/mae-paris-members.htm,No,,383
74,France,Paris,Europe,"Mix Internet Exchange and Transit",http://www.mixt.net/,Unknown,19990000,0,48.80000,2.33000,0,0,0,0,0.000000,No,0000-00-00,,,,,,,http://www.mixt.net/membres?PHPSESSID=d70789dd2193dfc12c377b1c95fbe580,No,,383
75,France,Paris,Europe,"Paris Internet Exchange",,Deprecated,0,0,48.80000,2.33000,0,0,0,0,0.000000,No,0000-00-00,,,,,,,,No,,383
76,France,Paris,Europe,"Paris Internet Exchange Service",,Unknown,0,0,48.80000,2.33000,0,0,0,0,0.000000,No,0000-00-00,,,,,,,,No,,383
77,France,Paris,Europe,PARIX,http://www.parix.net,"Not an exchange",20010000,0,48.80000,2.33000,0,0,0,0,0.000000,No,0000-00-00,,,,,,,http://www.parix.net/parix-members.html,No,,383
79,France,Paris,Europe,"Paris NAP",http://www.panap.fr,Defunct,20050700,0,48.80000,2.33000,0,0,0,0,0.000000,No,2013-03-20,,,,,,,http://www.panap.fr/members.php,No,,383
84,Germany,Frankfurt,Europe,MAE-Frankfurt,http://www.mae.net/fac/mae-frankfurt.htm,Unknown,0,0,50.12000,8.68000,0,0,0,0,0.000000,No,0000-00-00,,,,,,,http://www.mae.net/fac/mae-frankfurt-members.htm,No,,383
85,Germany,Frankfurt,Europe,"XchangePoint Frankfurt IPP",,Unknown,0,0,50.12000,8.68000,0,0,0,0,0.000000,No,0000-00-00,,,,,,,,No,,383
86,Germany,Hamburg,Europe,"Internet Exchange Hamburg",http://www.inxs.de,Defunct,20001000,0,53.55000,10.03000,0,0,0,0,0.000000,No,2015-10-31,,,,,,,http://www.inxs.de/public/cgi-bin/showmembers,No,,383
87,Germany,Hamburg,Europe,"XchangePoint Hamburg IPP",,Unknown,20030400,0,53.55000,10.03000,0,0,0,0,0.000000,No,0000-00-00,,,,,,,,No,,383
90,Germany,Munich,Europe,"Munich Commercial Internet Exchange",,Defunct,0,0,48.13000,11.70000,0,0,0,0,0.000000,No,0000-00-00,,,,,,,,No,,383
91,Germany,Münster,Europe,"Nederlands-Duitse Internet Exchange",http://www.ndix.net,Planned,0,0,51.95000,7.48401,0,0,0,0,0.000000,No,0000-00-00,,,,,,,,No,,383
95,China,"Hong Kong",Asia-Pacific,"Hong Kong Academic Internet Exchange",http://cn.apan.net?,Planned,0,0,22.33000,114.18000,0,0,0,0,0.000000,No,0000-00-00,,,,,,,,No,,249
97,China,"Hong Kong",Asia-Pacific,Level3,,Defunct,0,0,22.33000,114.18000,0,0,0,0,0.000000,No,0000-00-00,,,,,,,,No,,249
98,China,"Hong Kong",Asia-Pacific,"Pihana Hong Kong",,"Not an exchange",0,0,22.33000,114.18000,0,0,0,0,0.000000,No,0000-00-00,,,,,,,,No,,249
101,India,Mumbai,Asia-Pacific,"Enron India Exchange",,Defunct,0,0,19.00000,72.80000,0,0,0,0,0.000000,No,0000-00-00,,,,,,,,No,,249
102,India,"New Delhi",Asia-Pacific,"India Internet Exchange",https://www.india-ix.com/,Planned,0,0,28.58000,77.20000,0,0,0,0,0.000000,No,0000-00-00,,,,,,,,No,,249
107,Indonesia,Bali,Asia-Pacific,"Bali Internet Exchange",,Planned,0,0,-8.31478,115.21912,0,0,0,0,0.000000,No,0000-00-00,,,,,,,,No,,249
108,Indonesia,Bandung,Asia-Pacific,NPXP,,Planned,0,0,-6.90344,107.57312,0,0,0,0,0.000000,No,0000-00-00,,,,,,,,No,,249
109,Indonesia,Jakarta,Asia-Pacific,IndonesiaEP,,Unknown,0,0,-6.17444,106.82944,0,0,0,0,0.000000,No,0000-00-00,,,,,,,,No,,249
112,Indonesia,Jakarta,Asia-Pacific,"NAPSINDO International Internet Exchange",http://www.naiix.net/,Defunct,0,0,-6.17444,106.82944,0,0,0,0,0.000000,No,0000-00-00,,,,,,,,No,,249
115,Indonesia,Surabaya,Asia-Pacific,NPXP,,Planned,0,0,-7.24917,112.75083,0,0,0,0,0.000000,No,0000-00-00,,,,,,,,No,,249
119,Italy,Rome,Europe,CASPUR,,"Not an exchange",0,0,41.90000,12.45000,0,0,0,0,0.000000,No,0000-00-00,,,,,,,,No,,383
122,Japan,Kyoto,Asia-Pacific,"Kyoto Municipal Exchange",,Unknown,0,0,35.02000,135.73000,0,0,0,0,0.000000,No,0000-00-00,,,,,,,,No,,249
123,Japan,Nagoya,Asia-Pacific,"JPIX Nagoya",https://www.jpix.ad.jp/en/,Unknown,20010400,0,35.12000,136.93000,0,0,0,0,0.000000,No,2017-02-23,,,,,,,,No,,249
124,Japan,Tokyo,Asia-Pacific,"JPIX Nihonbashi",https://www.jpix.ad.jp/en/,"Not an exchange",20040400,0,35.55000,139.78000,0,0,0,0,0.000000,No,0000-00-00,,,,,,,https://www.jpix.ad.jp/en/member.php,No,,249
127,Japan,Osaka,Asia-Pacific,NSPIXP-2,,Deprecated,19970300,0,34.53000,135.50000,0,0,0,0,0.000000,No,0000-00-00,,,,,,,,No,,249
132,Japan,Tokyo,Asia-Pacific,"Media Exchange Co.",http://www.mex.ad.jp/,"Not an exchange",0,0,35.55000,139.78000,0,0,0,0,0.000000,No,0000-00-00,,,,,,,,No,,249
133,Japan,Tokyo,Asia-Pacific,"Network Service Provider IXP",,Defunct,19940400,0,35.55000,139.78000,0,0,0,0,0.000000,No,0000-00-00,,,,,,,,No,,249
136,Japan,Tokyo,Asia-Pacific,"Pihana Tokyo",,"Not an exchange",0,0,35.55000,139.78000,0,0,0,0,0.000000,No,0000-00-00,,,,,,,,No,,249
140,Japan,Sendai,Asia-Pacific,"BBIX Sendai",http://www.bbix.net/en/service/ix/,Defunct,20040800,0,38.13000,140.93000,0,0,0,0,0.000000,No,0000-00-00,,,,,,,,No,,249
146,"South Korea",Seoul,Asia-Pacific,"Korea Internet Data Center",http://www.kidc.net/eng/,Unknown,19991000,0,37.50000,126.93000,0,0,0,0,0.000000,No,0000-00-00,,,,,,,,No,,249
148,"South Korea",Seoul,Asia-Pacific,"Korea Internet Exchange KIX",http://www.kix.ne.kr,Unknown,19961000,0,37.50000,126.93000,0,0,0,0,0.000000,No,0000-00-00,,,,,,,,No,,249
149,"South Korea",Seoul,Asia-Pacific,"Korea Telecom Internet Exchange",http://www.kix.net,"Not an exchange",19961000,0,37.50000,126.93000,0,0,0,0,0.000000,No,0000-00-00,,,,,,,,No,,249
150,"South Korea",Seoul,Asia-Pacific,"Pihana Seoul",,"Not an exchange",0,0,37.50000,126.93000,0,0,0,0,0.000000,No,0000-00-00,,,,,,,,No,,249
151,Latvia,Riga,Europe,"Latvian Internet Exchange",http://www.lix.lv,"Not an exchange",20070600,0,56.97000,24.05000,0,0,0,0,0.000000,No,0000-00-00,,,,,,,http://www.lix.lv/site/members,No,,383
152,Luxembourg,Luxembourg,Europe,"Luxembourg Internet Exchange",http://www.lix.lu/,Defunct,19980000,0,49.62000,6.22000,0,0,0,0,0.000000,No,2010-01-15,,,,,,,http://www.restena.lu/restena/en/EN-LIXMembersNet.html,No,,383
153,Malaysia,"Kuala Lumpur",Asia-Pacific,"Asia Regional Internet Exchange NAP",http://www.arix-nap.net/,"Not an exchange",0,0,3.13000,101.70000,0,0,0,0,0.000000,No,0000-00-00,,,,,,,,No,,249
154,Malaysia,"Kuala Lumpur",Asia-Pacific,"Kuala Lumpur Internet Exchange",,"Not an exchange",0,0,3.13000,101.70000,0,0,0,0,0.000000,No,0000-00-00,,,,,,,,No,,249
155,Malta,Msida,Europe,"Malta Internet Exchange",http://www.mix.net.mt/,Unknown,19990907,0,35.89000,14.48000,0,0,0,0,0.000000,No,0000-00-00,,,,,,,http://www.mix.net.mt/participants.html,No,,383
157,Mongolia,Ulaanbaatar,Asia-Pacific,"Mongolia Internet Exchange",http://www.infocon.mn/info/node/95,Unknown,20010500,0,47.90882,106.86346,0,0,0,0,0.000000,No,0000-00-00,,,,,,,,No,,249
161,Netherlands,Amsterdam,Europe,"XchangePoint Amsterdam IPP",,Unknown,0,0,52.30000,4.77000,0,0,0,0,0.000000,No,0000-00-00,,,,,,,,No,,383
166,"New Zealand",Dunedin,Asia-Pacific,"Dunedin Peering Exchange",http://dpe.nzix.net/,Defunct,20050000,0,-45.92000,170.17999,0,0,0,0,0.000000,No,0000-00-00,,,,,,,http://dpe.nzix.net/peers.html,No,,249
167,"New Zealand",Invercargill,Asia-Pacific,"Southland Internet Exchange",http://six.nzix.net/,Planned,0,0,-46.40224,168.35500,0,0,0,0,0.000000,No,0000-00-00,,,,,,,,No,,249
169,"New Zealand",Waikato,Asia-Pacific,"New Zealand Internet Exchange",http://www.waikato.ac.nz/NZIX/,Defunct,0,0,-40.62142,172.67887,0,0,0,0,0.000000,No,0000-00-00,,,,,,,,No,,249
170,"New Zealand","Upper Hutt/Lower Hutt/Porirua",Asia-Pacific,"Three Cities Internet Exchange",http://3cix.nzix.net/,Defunct,20050600,0,-41.11579,174.95364,0,0,0,0,0.000000,No,0000-00-00,,,,,,,http://3cix.nzix.net/peers.html,No,,249
172,Nicaragua,Managua,"Latin America","Nicaraguan Internet Exchange",http://www.ain.org.ni/index.php/nicix,Unknown,20040400,0,12.15000,-86.17000,0,0,0,0,0.000000,No,2015-11-03,,,,,,,http://www.ain.org.ni/index.php/nicix#Miembros,No,,137
173,Nigeria,Ibadan,Africa,"Ibadan Internet Exchange",http://www.ib-ix.net,Defunct,20020300,0,7.43000,3.90000,0,0,0,0,0.000000,No,0000-00-00,,,,,,,,No,,81
175,Pakistan,Karachi,Asia-Pacific,"Pakistan Network Access Point",,Defunct,0,0,24.90000,67.13000,0,0,0,0,0.000000,No,0000-00-00,,,,,,,,No,,249
177,Panama,"Panama City","Latin America","NAP Panamericano S.A.",http://www.sunglobefiber.com/panamnap.htm,Defunct,0,0,8.97000,-79.53000,0,0,0,0,0.000000,No,0000-00-00,,,,,,,,No,,137
178,Panama,,"Latin America","Secretaria Nacional de Ciencia, Tecnologia e Innovacion",http://www.senacyt.gob.pa/,Unknown,0,0,,,0,0,0,0,0.000000,No,0000-00-00,,,,,,,,No,,137
179,Paraguay,Asuncion,"Latin America","CAPADI NAP-PY",http://www.capadi.org.py,Defunct,20000920,0,-25.24000,-57.52000,0,0,0,0,0.000000,No,0000-00-00,,,,,,,http://www.capadi.org.py/articulo.php?id=17,No,,137
180,Peru,Lima,"Latin America","NAP Lima",,Defunct,0,0,-12.00000,-77.12000,0,0,0,0,0.000000,No,0000-00-00,,,,,,,,No,,137
182,Philippines,Manila,Asia-Pacific,"Common Routing Exchange",http://www.ph.net/CORE/,Defunct,19930000,0,14.58000,120.95000,0,0,0,0,0.000000,No,0000-00-00,,,,,,,http://www.ph.net/CORE/CORE-mem.html,No,,249
183,Philippines,Manila,Asia-Pacific,"Manila Internet Exchange",http://www.easterntelecom.com.ph/Products/index.asp?ID=39&MCID=3,"Not an exchange",0,0,14.58000,120.95000,0,0,0,0,0.000000,No,0000-00-00,,,,,,,,No,,249
184,Philippines,Manila,Asia-Pacific,"Philippines Internet Exchange",http://www.phix.net.ph,"Not an exchange",19970100,0,14.58000,120.95000,0,0,0,0,0.000000,No,0000-00-00,,,,,,,http://www.phix.net.ph/phix/network.html#isp,No,,249
185,Poland,Warsaw,Europe,"Warsaw Internet Exchange",http://www.wix.aster.pl/vxb/w/,Defunct,19960000,0,52.23000,21.00000,0,0,0,0,0.000000,No,2009-12-15,,,,,,,http://www.wix.aster.pl/vxb/w/index.asp?sid=e1130c4dbcc8bf8b213df928bdc8926c&klienci_x=klienci,No,,383
188,Romania,Bucharest,Europe,"Bucharest Internet Exchange",http://www.buhix.ro/,Defunct,19990000,0,44.50000,26.13000,0,0,0,0,0.000000,No,0000-00-00,,,,,,,http://www.buhix.ro/toc.htm,No,,383
194,Russia,"St. Petersburg",Europe,"North West Internet Exchange",http://www.rusnet.ru/mpix,Defunct,19980000,0,59.93000,30.30000,0,0,0,0,0.000000,No,0000-00-00,,,,,,,http://www.rusnet.ru/mpix/members.htm,No,,383
196,"Saudi Arabia",Riyadh,Europe,"Saudi Telecommunications Company Internet NOC",,"Not an exchange",0,0,24.72000,46.72000,0,0,0,0,0.000000,No,0000-00-00,,,,,,,,No,,383
197,"Saudi Arabia",Riyadh,Europe,"The Internet Services Unit",http://www.isu.net.sa/,"Not an exchange",19980000,0,24.72000,46.72000,0,0,0,0,0.000000,No,0000-00-00,,,,,,,,No,,383
198,"United Kingdom",Edinburgh,Europe,"Scottish Internet Exchange",http://www.scotix.com/,Defunct,19990900,0,55.92000,-3.17000,0,0,0,0,0.000000,No,0000-00-00,,,,,,,,No,,383
199,"United Kingdom",Edinburgh,Europe,WorldIX,http://www.worldix.com,Defunct,20000200,0,55.92000,-3.17000,0,0,0,0,0.000000,No,0000-00-00,,,,,,,,No,,383
200,Singapore,Singapore,Asia-Pacific,"Pihana Singapore",,"Not an exchange",0,0,1.37000,103.98000,0,0,0,0,0.000000,No,0000-00-00,,,,,,,,No,,249
201,Singapore,Singapore,Asia-Pacific,"Singapore One Network for Everyone",,"Not an exchange",0,0,1.37000,103.98000,0,0,0,0,0.000000,No,0000-00-00,,,,,,,,No,,249
203,Singapore,Singapore,Asia-Pacific,"Singapore Telecom Internet Exchange",http://www.ix.singtel.com/,"Not an exchange",0,0,1.37000,103.98000,0,0,0,0,0.000000,No,0000-00-00,,,,,,,,No,,249
207,"South Africa","Cape Town",Africa,Hub,http://hub.org.za,Defunct,0,0,-33.98000,18.60000,0,0,0,0,0.000000,No,0000-00-00,,,,,,,,No,,81
208,"South Africa",Grahamstown,Africa,"Grahamstown Internet Exchange",http://ginx.org.za/,Defunct,20050313,30,-33.28000,26.50000,0,0,0,0,0.000000,No,2017-01-30,,,,,,,http://ginx.org.za/participants,No,,81
210,"South Africa",Johannesburg,Africa,"South African Internet Exchange",,"Not an exchange",0,0,-26.13000,28.23000,0,0,0,0,0.000000,No,0000-00-00,,,,,,,,No,,81
212,Spain,Bilbao,Europe,"Punto Neutro Vasco de Internet",http://www.euskonix.net/,Defunct,20020117,0,43.30000,-2.93000,0,0,0,0,0.000000,No,2017-02-22,,,,,,,http://www.euskonix.net/socios.html,No,,383
214,Spain,Madrid,Europe,"Madrid Internet Exchange",http://www.mad-ix.net/,Unknown,0,0,40.43000,-3.70000,0,0,0,0,0.000000,No,0000-00-00,,,,,,,,No,,383
216,Spain,Madrid,Europe,"Punto Neutro Español de Internet",http://www.espanix.net,Deprecated,0,0,40.43000,-3.70000,0,0,0,0,0.000000,No,2014-09-23,,,,,,,http://www.espanix.net/esp/peering.htm,No,,383
217,Spain,"Santiago de Compostela",Europe,"Punto Neutro de Intercambio de Tráfico de Internet en Galicia",http://www.galnix.net,Defunct,20020719,0,42.90000,-8.43000,0,0,0,0,0.000000,No,2007-12-27,,,,,,,http://www.galnix.net,No,,383
218,"Sri Lanka",Colombo,Asia-Pacific,"Singapore Telecom Internet Exchange",,"Not an exchange",0,0,6.90000,79.87000,0,0,0,0,0.000000,No,0000-00-00,,,,,,,,No,,249
220,Swaziland,Mbabane,Africa,"Swaziland Internet Exchange",,Deprecated,20040600,0,-26.31667,31.13333,0,0,0,0,0.000000,No,0000-00-00,,,,,,,,No,,81
223,Sweden,Linköping,Europe,"Linkoping municipal exchange",http://www.tekniskaverken.se/tekniskaverken/foretag/bredband/index.html,Planned,20021000,0,58.41686,15.60234,0,0,0,0,0.000000,No,0000-00-00,,,,,,,,No,,383
224,Sweden,Luleå,Europe,PolarIX,http://www.polarix.se/intro/index.asp,Unknown,20020900,0,65.58000,22.15000,0,0,0,0,0.000000,No,0000-00-00,,,,,,,,No,,383
226,Sweden,Malmö,Europe,"Netnod Malmö",http://www.netnod.se,Defunct,20000000,0,55.57000,13.07000,0,0,0,0,0.000000,No,2014-02-26,,,,,,,http://www.netnod.se/connected.shtml,No,,383
232,Switzerland,Zurich,Europe,MAE-Zurich,,Defunct,0,0,47.48000,8.53000,0,0,0,0,0.000000,No,0000-00-00,,,,,,,,No,,383
233,Switzerland,Zurich,Europe,"Swiss Internet Exchange",,Defunct,0,0,47.48000,8.53000,0,0,0,0,0.000000,No,0000-00-00,,,,,,,,No,,383
235,Switzerland,Zurich,Europe,"Telehouse Internet Exchange",http://www.tix.ch/,Unknown,19990000,0,47.48000,8.53000,0,0,0,0,0.000000,No,0000-00-00,,,,,,,,No,,383
240,Taiwan,Taipei,Asia-Pacific,TaiwanEP,,Unknown,0,0,25.03000,121.52000,0,0,0,0,0.000000,No,0000-00-00,,,,,,,,No,,249
241,Taiwan,Taipei,Asia-Pacific,,,Unknown,0,0,25.03000,121.52000,0,0,0,0,0.000000,No,0000-00-00,,,,,,,,No,,249
243,Australia,Hobart,Asia-Pacific,"Tasmanian Internet Exchange",http://www.tia.asn.au/,Defunct,0,0,-42.83000,147.48000,0,0,0,0,0.000000,No,0000-00-00,,,,,,,,No,,249
245,Thailand,Bangkok,Asia-Pacific,NECTEC-IIR,,"Not an exchange",19970000,0,13.92000,100.60000,0,0,0,0,0.000000,No,0000-00-00,,,,,,,,No,,249
246,Thailand,Bangkok,Asia-Pacific,"ThaiSarn Public Internet Exchange",http://ntl.nectec.or.th/pie/,Unknown,0,0,13.92000,100.60000,0,0,0,0,0.000000,No,0000-00-00,,,,,,,,No,,249
247,Turkey,Istanbul,Europe,"Turkish Internet Exchange",https://www.turk-ix.com/,Defunct,19970000,0,40.97000,28.82000,0,0,0,0,0.000000,No,2019-06-10,,,,,,,https://www.turk-ix.com/members.html,No,,383
250,Ukraine,Kiev,Europe,"Ukrtelecom Internet Exchange",http://en.ukrtelecom.ua/services/operators_providers/traffic,"Not an exchange",0,0,50.40000,30.45000,0,0,0,0,0.000000,No,0000-00-00,,,,,,,,No,,383
251,"United Arab Emirates","Abu Dhabi",Europe,"Emirates Internet Exchange",http://www.emix.ae,"Not an exchange",0,0,24.43000,54.65000,0,0,0,0,0.000000,No,0000-00-00,,,,,,,,No,,383
252,"United Arab Emirates","Abu Dhabi",Europe,"Gulf Internet Exchange",,Planned,0,0,24.43000,54.65000,0,0,0,0,0.000000,No,0000-00-00,,,,,,,,No,,383
253,"United States",Albuquerque,"North America",IXNM,http://www.ixnm.net,Defunct,20020200,0,35.08000,-106.65000,0,0,0,0,0.000000,No,0000-00-00,,,,,,,,No,,253
254,"United States","Anchorage ","North America","Anchorage Metropolitan Access Point",,Unknown,0,0,61.21575,-149.86894,0,0,0,0,0.000000,No,0000-00-00,,,,,,,,No,,253
256,"United States",Atlanta,"North America","Atlanta Internet Exchange",http://www.atlantaix.com,Defunct,20030800,112219,33.86000,-84.40000,0,0,0,0,0.000000,No,2017-10-22,,,,,,,https://www.atlantaix.com/,No,,253
257,"United States",Atlanta,"North America","Atlanta NAP",http://www.atlanta-nap.net/,Unknown,0,0,33.86000,-84.40000,0,0,0,0,0.000000,No,0000-00-00,,,,,,,,No,,253
258,"United States",Atlanta,"North America",MAE-Central,http://www.mae.net/fac/mae-central.htm,Defunct,0,0,33.86000,-84.40000,0,0,0,0,0.000000,No,0000-00-00,,,,,,,http://www.mae.net/fac/mae-central-members.htm,No,,253
260,"United States",Austin,"North America",AUSIX,,Defunct,0,0,30.27000,-97.74000,0,0,0,0,0.000000,No,0000-00-00,,,,,,,,No,,253
261,"United States",Austin,"North America","Austin Metro Access Point",http://www.fc.net/map/austin/,Defunct,0,0,30.27000,-97.74000,0,0,0,0,0.000000,No,0000-00-00,,,,,,,,No,,253
262,"United States",Baltimore,"North America",Baltimore-NAP,http://www.baltimore-nap.net/,Unknown,0,0,39.30000,-76.62000,0,0,0,0,0.000000,No,0000-00-00,,,,,,,,No,,253
264,"United States",Berkeley,"North America","Calren2 North",,Unknown,0,0,37.87000,-122.27000,0,0,0,0,0.000000,No,0000-00-00,,,,,,,,No,,253
265,"United States",Boston,"North America","Boston Metropolitan Exchange Point",http://www.bmxp.net/,Defunct,0,0,42.37000,-71.03000,0,0,0,0,0.000000,No,2009-08-26,,,,,,,http://www.bmxp.net/members.html,No,,253
267,"United States",Chicago,"North America","Ameritech Advanced Data Services Network Access Point",http://aads.net/index.html,Deprecated,0,0,41.85000,-87.65000,0,0,0,0,0.000000,No,0000-00-00,,,,,,,,No,,253
269,"United States",Chicago,"North America",MAE-Chicago,,Defunct,0,0,41.85000,-87.65000,0,0,0,0,0.000000,No,0000-00-00,,,,,,,,No,,253
270,"United States",Chicago,"North America","PacBell ATM Exchange",,Defunct,0,0,41.85000,-87.65000,0,0,0,0,0.000000,No,0000-00-00,,,,,,,,No,,253
271,"United States",Chicago,"North America","STAR TAP",http://www.startap.net/ENGINEERING/IPPLAN.html,Unknown,19980000,0,41.85000,-87.65000,0,0,0,0,0.000000,No,0000-00-00,,,,,,,http://www.startap.net/startap/NETWORKS/,No,,253
273,"United States",Colchester,"North America",VermontIX,http://www.hill.com/trc/vix/index.html,Defunct,0,0,44.55000,-73.18000,0,0,0,0,0.000000,No,0000-00-00,,,,,,,,No,,253
274,"United States",Columbus,"North America",CMH-IX,http://www.cmh-ix.net/,Planned,0,0,40.00000,-83.02000,0,0,0,0,0.000000,No,0000-00-00,,,,,,,,No,,253
275,"United States",Columbus,"North America","Columbus Internet Exchange",http://www.cmh-ix.net/,Unknown,0,0,40.00000,-83.02000,0,0,0,0,0.000000,No,0000-00-00,,,,,,,,No,,253
276,"United States",Columbus,"North America",FiberNAP,http://www.fibernap.net/,Unknown,0,0,40.00000,-83.02000,0,0,0,0,0.000000,No,0000-00-00,,,,,,,,No,,253
277,"United States",Dallas,"North America","Dallas/Fort Worth Metropolitan Access Point",http://www.fc.net/map/dfw/,Unknown,0,0,32.77000,-96.77000,0,0,0,0,0.000000,No,0000-00-00,,,,,,,,No,,253
279,"United States",Dallas,"North America","Excel Telecom NAP",,Unknown,0,0,32.77000,-96.77000,0,0,0,0,0.000000,No,0000-00-00,,,,,,,,No,,253
280,"United States",Dallas,"North America","MAE Central",,Defunct,0,0,32.77000,-96.77000,0,0,0,0,0.000000,No,0000-00-00,,,,,,,,No,,253
281,"United States",Dallas,"North America",MAE-Dallas,,Defunct,0,0,32.77000,-96.77000,0,0,0,0,0.000000,No,0000-00-00,,,,,,,,No,,253
282,"United States",Dallas,"North America","Equinix-Dallas(former PAIX)",http://www.switchanddata.com/Dallas%5Fcolocation/,Deprecated,20020224,0,32.77000,-96.77000,0,0,0,0,0.000000,No,0000-00-00,,,,,,,,No,,253
283,"United States",Denver,"North America","Denver Internet Exchange",,Defunct,0,0,39.75000,-105.00000,0,0,0,0,0.000000,No,0000-00-00,,,,,,,,No,,253
284,"United States",Denver,"North America","Mountain Area Exchange",http://themax.net/,Defunct,0,0,39.75000,-105.00000,0,0,0,0,0.000000,No,0000-00-00,,,,,,,,No,,253
285,"United States",Denver,"North America",Equinix-Denver,,Planned,0,0,39.75000,-105.00000,0,0,0,0,0.000000,No,0000-00-00,,,,,,,,No,,253
286,"United States",Eugene,"North America","Oregon Internet Exchange",http://darkwing.uoregon.edu/~oregonix/,Unknown,0,0,44.05000,-123.08000,0,0,0,0,0.000000,No,0000-00-00,,,,,,,,No,,253
288,"United States",Houston,"North America","Houston Network Access Point",http://www.houston-nap.com/index.html,Defunct,20100000,0,29.75000,-95.35000,0,0,0,0,0.000000,No,0000-00-00,,,,,,,,No,,253
289,"United States",Houston,"North America","Houston MAGIE",,Unknown,0,0,29.75000,-95.35000,0,0,0,0,0.000000,No,0000-00-00,,,,,,,,No,,253
290,"United States",Houston,"North America","Houston Metropolitan Access Point",http://www.fc.net/map/houston/,Unknown,0,0,29.75000,-95.35000,0,0,0,0,0.000000,No,0000-00-00,,,,,,,,No,,253
291,"United States",Houston,"North America",MAE-Houston,,Defunct,0,0,29.75000,-95.35000,0,0,0,0,0.000000,No,0000-00-00,,,,,,,,No,,253
292,"United States",Houston,"North America","Rice EduPOP",,Deprecated,20010510,0,29.75000,-95.35000,0,0,0,0,0.000000,No,0000-00-00,,,,,,,,No,,253
293,"United States",Indianapolis,"North America","Indianapolis Data Exchange",http://www.indyx.net/info,Unknown,0,0,39.77511,-86.10947,0,0,0,0,0.000000,No,0000-00-00,,,,,,,,No,,253
294,"United States","Los Angeles","North America",6IIX,http://www.6iix.net/,Unknown,0,0,33.97000,-118.25000,0,0,0,0,0.000000,No,0000-00-00,,,,,,,,No,,253
295,"United States","Los Angeles","North America","Calren2 South",,Unknown,0,0,33.97000,-118.25000,0,0,0,0,0.000000,No,0000-00-00,,,,,,,,No,,253
296,"United States","Los Angeles","North America","Equinix Los Angeles IBX",,Unknown,0,0,33.97000,-118.25000,0,0,0,0,0.000000,No,0000-00-00,,,,,,,,No,,253
298,"United States","Los Angeles","North America",MAE-LA,,Defunct,0,0,33.97000,-118.25000,0,0,0,0,0.000000,No,0000-00-00,,,,,,,,No,,253
299,"United States","Los Angeles","North America","Pac Bell Los Angeles Network Access Point",,Defunct,0,0,33.97000,-118.25000,0,0,0,0,0.000000,No,0000-00-00,,,,,,,,No,,253
300,"United States","Los Angeles","North America","Equinix-LA(former Paix)",,Planned,0,0,33.97000,-118.25000,0,0,0,0,0.000000,No,0000-00-00,,,,,,,,No,,253
301,"United States","Los Angeles","North America","Pihana Los Angeles",,"Not an exchange",0,0,33.97000,-118.25000,0,0,0,0,0.000000,No,0000-00-00,,,,,,,,No,,253
302,"United States",Louisville,"North America","Louisville NAP",http://www.louisvillenap.net/,Unknown,0,0,38.20451,-85.70698,0,0,0,0,0.000000,No,0000-00-00,,,,,,,,No,,253
304,"United States","Marina del Rey","North America","ISI DMZ/Gigapop",,"Not an exchange",0,0,33.99000,-118.46000,0,0,0,0,0.000000,No,0000-00-00,,,,,,,,No,,253
305,"United States",Miami,"North America","BellSouth Multimedia Internet Exchange",,Defunct,0,0,25.83000,-80.29000,0,0,0,0,0.000000,No,0000-00-00,,,,,,,,No,,253
306,"United States",Miami,"North America","AMPATH - Florida International University/CIARA",http://www.ampath.net/,"Not an exchange",20060000,0,25.83000,-80.29000,0,0,0,0,0.000000,No,0000-00-00,,,,,,,http://www.ampath.net/peering.php,No,,253
309,"United States",Minneapolis,"North America","Northern Lights GigaPoP",http://www.northernlights.gigapop.net,"Not an exchange",20000000,0,44.98550,-93.27190,0,0,0,0,0.000000,No,0000-00-00,,,,,,,http://www.northernlights.gigapop.net/participants.shtml,No,,253
310,"United States","Moffett Field","North America",AMES-MIX,,Defunct,0,0,37.41000,-122.05000,0,0,0,0,0.000000,No,0000-00-00,,,,,,,,No,,253
311,"United States","Moffett Field","North America",MAE-West,http://www.mae.net/fac/,Defunct,0,0,37.41000,-122.05000,0,0,0,0,0.000000,No,0000-00-00,,,,,,,,No,,253
312,"United States","Moffett Field","North America",NGIX-West,,Unknown,19980000,0,37.41000,-122.05000,0,0,0,0,0.000000,No,0000-00-00,,,,,,,,No,,253
313,"United States",Nashville,"North America","Nashville City Net",http://www.nap.nashville.tn.us/,Unknown,0,0,36.17000,-86.78000,0,0,0,0,0.000000,No,0000-00-00,,,,,,,,No,,253
314,"United States",Nashville,"North America","Nashville NAP",,Unknown,0,0,36.17000,-86.78000,0,0,0,0,0.000000,No,0000-00-00,,,,,,,,No,,253
316,"United States","New York","North America",6IIX,http://www.6iix.net/,Unknown,0,0,40.75000,-74.00000,0,0,0,0,0.000000,No,0000-00-00,,,,,,,,No,,253
318,"United States","New York","North America",MAE-NY,,Defunct,0,0,40.75000,-74.00000,0,0,0,0,0.000000,No,0000-00-00,,,,,,,,No,,253
319,"United States","New York","North America",MetroIX,http://www.metroix.net/,Unknown,0,0,40.75000,-74.00000,0,0,0,0,0.000000,No,0000-00-00,,,,,,,,No,,253
322,"United States","New York","North America",NY-RIX,,Unknown,0,0,40.75000,-74.00000,0,0,0,0,0.000000,No,0000-00-00,,,,,,,,No,,253
324,"United States",,"North America",OhioEP,,Defunct,0,0,,,0,0,0,0,0.000000,No,0000-00-00,,,,,,,,No,,253
326,"United States",Pennsauken,"North America","Sprint NAP",http://www.merit.edu/nsf.architecture/Sprint/index.html,Defunct,0,0,39.95620,-75.05800,0,0,0,0,0.000000,No,0000-00-00,,,,,,,,No,,253
327,"United States",Philadelphia,"North America","Equinix-Philly(former Paix)",,Planned,0,0,40.11691,-75.01428,0,0,0,0,0.000000,No,0000-00-00,,,,,,,,No,,253
328,"United States",Philadelphia,"North America","The Philadelphia Internet Exchange",http://www.phlix.net/,Defunct,20130100,0,40.11691,-75.01428,0,0,0,0,0.000000,No,0000-00-00,,,,,,,http://phlix.net/,No,,253
329,"United States",Phoenix,"North America",PhoenixNAP,http://www.phoenixnap.net,Defunct,0,0,33.45070,-112.06840,0,0,0,0,0.000000,No,0000-00-00,,,,,,,,No,,253
331,"United States",Pittsburgh,"North America","Pittsburgh Exchange Point",http://www.pitx.net/,Unknown,0,0,40.45000,-79.95000,0,0,0,0,0.000000,No,2008-12-08,,,,,,,http://www.pitx.net/members.html,No,,253
333,"United States","Salt Lake City","North America","Utah Regional Exchange Point",http://www.utah.rep.net/,Unknown,19960423,0,40.77000,-111.90000,0,0,0,0,0.000000,No,0000-00-00,,,,,,,http://www.utah.rep.net/people.html,No,,253
334,"United States","San Antonio","North America","San Antonio Metro Access Point",http://www.fc.net/map/samap/,Unknown,0,0,29.47335,-98.53556,0,0,0,0,0.000000,No,0000-00-00,,,,,,,,No,,253
335,"United States","San Diego","North America","Equinix-SD(former Paix)",,Planned,0,0,32.72000,-117.16000,0,0,0,0,0.000000,No,0000-00-00,,,,,,,,No,,253
338,"United States","San Francisco","North America",PB-NAP,,Defunct,0,0,37.78000,-122.43000,0,0,0,0,0.000000,No,0000-00-00,,,,,,,,No,,253
340,"United States","San Jose","North America",MAE-West-ATM,,Defunct,0,0,37.33000,-121.88000,0,0,0,0,0.000000,No,0000-00-00,,,,,,,,No,,253
341,"United States","Santa Clara","North America",6IIX,http://www.6iix.net/,Defunct,20010000,0,37.35000,-121.95000,0,0,0,0,0.000000,No,0000-00-00,,,,,,,,No,,253
342,"United States",Seattle,"North America",NIX,,Defunct,0,0,47.61000,-122.33000,0,0,0,0,0.000000,No,0000-00-00,,,,,,,,No,,253
343,"United States",Seattle,"North America","NWnet Gigapop",,Unknown,0,0,47.61000,-122.33000,0,0,0,0,0.000000,No,0000-00-00,,,,,,,,No,,253
346,"United States",Seattle,"North America","Pacific Wave International Peering Exchange",http://pacificwave.net/,"Not an exchange",19960000,0,47.61000,-122.33000,0,0,0,0,0.000000,No,0000-00-00,,,,,,,http://pacificwave.net/participants-affiliations,No,,253
348,"United States",Spokane,"North America","Eastern Washington Internet Exchange",http://www.dsource.com/ewix/,Unknown,0,0,47.67276,-117.55223,0,0,0,0,0.000000,No,0000-00-00,,,,,,,,No,,253
349,"United States","St. Louis","North America","St. Louis Internet Access Consortium",,Unknown,0,0,38.58000,-90.20000,0,0,0,0,0.000000,No,0000-00-00,,,,,,,,No,,253
351,"United States","St. Louis","North America",StLouisNAP,,Defunct,0,0,38.58000,-90.20000,0,0,0,0,0.000000,No,0000-00-00,,,,,,,,No,,253
352,"United States","St. Louis","North America",StLouIX,http://www.stlouix.net/,Defunct,0,0,38.58000,-90.20000,0,0,0,0,0.000000,No,0000-00-00,,,,,,,,No,,253
353,"United States","Takoma Park","North America","Andrew's Basement Exchange",,Planned,0,0,38.98000,-77.00222,0,0,0,0,0.000000,No,0000-00-00,,,,,,,,No,,253
355,"United States",Tucson,"North America","Tucson Interconnect",http://www.tti.aces.net/,Unknown,0,0,32.21609,-110.97099,0,0,0,0,0.000000,No,0000-00-00,,,,,,,,No,,253
356,"United States",Tucson,"North America","Tucson Network Access Point",http://www.ttn.rtd.net/,Unknown,0,0,32.21609,-110.97099,0,0,0,0,0.000000,No,0000-00-00,,,,,,,,No,,253
358,"United States","Washington DC","North America",MAE-East,http://www.mae.net/,Defunct,19931200,0,38.90857,-77.01798,0,0,0,0,0.000000,No,0000-00-00,,,,,,,,No,,253
359,"United States","Washington DC","North America",MAE-East-ATM,,Defunct,19980700,0,38.90857,-77.01798,0,0,0,0,0.000000,No,0000-00-00,,,,,,,,No,,253
360,"United States","Washington DC","North America",NeutralNAP,,Defunct,0,0,38.90857,-77.01798,0,0,0,0,0.000000,No,0000-00-00,,,,,,,,No,,253
364,Zimbabwe,Harare,Africa,"Zimbabwe Internet Exchange",http://www.zispa.org.zw,Defunct,20010700,0,-17.83000,31.02000,0,0,0,0,0.000000,No,0000-00-00,,,,,,,,No,,81
